STORE NAME,LICENSE ID,ACCOUNT NUMBER,SQUARE FEET,BUFFER SIZE,ADDRESS,ZIP CODE,COMMUNITY AREA NAME,COMMUNITY AREA,WARD,CENSUS TRACT,CENSUS BLOCK,X COORDINATE,Y COORDINATE,LATITUDE,LONGITUDE,LOCATION
QUICK STOP FOOD MART,39791,3604,3000,B,2751 W PRATT BLVD,60645,WEST RIDGE,2,50,17031020601,1.7031E+14,1156542.527,1944958.748,42.00475007,-87.69942278,"(42.0047500731, -87.6994227766)"
DOMINICK'S #147/1147,41674,5033,68000,A,1340 S CANAL ST,60607,NEAR WEST SIDE,28,2,17031841900,1.70318E+14,1173296.123,1893985.705,41.86452119,-87.6393041,"(41.8645211937, -87.6393040996)"
CERMAK PRODUCE,1515206,279468,25000,A,5220 S PULASKI RD,60632,WEST ELSDON,62,23,17031620200,1.70316E+14,1150549.398,1869568.674,41.79799187,-87.72344374,"(41.79799187, -87.7234437408)"
WHOLE FOODS MARKET,54059,86298,4501,B,3300 N ASHLAND AVE,60657,LAKE VIEW,6,44,17031062500,1.70311E+14,1165027.797,1921997.107,41.94156586,-87.6688604,"(41.9415658578, -87.6688604029)"
PATEL BROS,25338,88729,5000,B,2610 W DEVON AVE,60659,WEST RIDGE,2,50,17031020602,1.7031E+14,1157695.367,1942415.316,41.9977473,-87.69525116,"(41.9977473006, -87.6952511581)"
OHIO FOOD MART,1225367,243092,3500,B,5345 W OHIO ST,60644,AUSTIN,25,37,17031251500,1.70313E+14,1140427.886,1903410.306,41.89104929,-87.75973284,"(41.8910492873, -87.7597328373)"
TWO BLUE FOODS INC,66710,20549,3000,B,702 E 100TH PL,60628,PULLMAN,50,8,17031500100,1.70315E+14,1183074.984,1838632.193,41.71240379,-87.60512759,"(41.712403787, -87.6051275894)"
JEWEL FOOD STORE #3349,1353385,259,64285,A,2520 N NARRAGANSETT AVE,60639,BELMONT CRAGIN,19,36,17031831500,1.70318E+14,1133277.021,1916208.365,41.92629696,-87.78569482,"(41.9262969563, -87.785694824)"
CARNICERIA LA GLORIA,1471030,271545,6500,B,2551 W 51ST ST,60632,GAGE PARK,63,14,17031630500,1.70316E+14,1160008.902,1870722.707,41.80096928,-87.6887221,"(41.8009692763, -87.6887220987)"
WHOLE FOODS MARKET,1678043,86298,11310,A,1101 S CANAL ST,60607,NEAR WEST SIDE,28,2,17031841900,1.70318E+14,1173339.136,1895578.037,41.86888971,-87.63909893,"(41.8688897111, -87.6390989281)"
PETERSON FOOD MART,1272746,251347,2500,B,2534 W PETERSON AVE,60659,WEST RIDGE,2,50,17031020802,1.7031E+14,1158181.49,1939808.892,41.99058521,-87.69353452,"(41.9905852147, -87.6935345218)"
STANLEY'S,15042,6609,10001,A,1558 N ELSTON AVE,60622,WEST TOWN,24,32,17031842300,1.70318E+14,1166918.65,1910717.903,41.91057467,-87.66223523,"(41.9105746696, -87.6622352294)"
FOOD 4 LESS,1884255,251246,58000,A,4821 W NORTH AVE,60639,AUSTIN,25,37,17031250800,1.70313E+14,1143859.692,1910159.121,41.90950515,-87.74695994,"(41.9095051477, -87.7469599363)"
COMMERCIAL GROCERY,56894,23932,2500,B,3004 E 100TH ST,60617,SOUTH DEERING,51,10,17031510100,1.70315E+14,1197923.012,1839161.153,41.71349784,-87.55073311,"(41.7134978435, -87.5507331066)"
JEWEL FOOD STORE,1953613,259,62603,A,11730 S MARSHFIELD AVE,60643,MORGAN PARK,75,34,17031750500,1.70318E+14,1167478.162,1826818.27,41.68033221,-87.66258468,"(41.6803322053, -87.6625846787)"
"LA UNICA FOOD MART, INC.",491,90,5000,B,1515 W DEVON AVE,60660,EDGEWATER,77,40,17031030200,1.7031E+14,1164985.885,1942560.493,41.99799346,-87.66842789,"(41.9979934597, -87.6684278857)"
MID TOWN FOODS,39968,15264,3520,B,3855 W DIVISION ST,60651,HUMBOLDT PARK,23,27,17031231200,1.70312E+14,1150230.934,1907681.305,41.90258387,-87.72361925,"(41.9025838739, -87.7236192485)"
THREE BROTHER,6321,62766,10001,A,900 N FRANCISCO AVE,60622,WEST TOWN,24,26,17031242700,1.70312E+14,1156842.05,1906097.7,41.89810682,-87.69937838,"(41.8981068159, -87.6993783779)"
CUENCA'S BAKERY & GROCERIES,1619464,292181,4500,B,4229 W MONTROSE AVE,60641,IRVING PARK,16,38,17031160300,1.70312E+14,1147271.221,1928863.708,41.96076752,-87.73394693,"(41.9607675196, -87.7339469271)"
JEWEL FOOD STORES #3262,1409,259,35000,A,4660 W IRVING PARK RD,60641,PORTAGE PARK,15,45,17031831700,1.70318E+14,1144267.993,1926214.3,41.95355444,-87.74505531,"(41.9535544384, -87.7450553112)"
ROMAN BROS 1 INC,11900,5925,10001,A,6978 N CLARK ST,60626,ROGERS PARK,1,49,17031010702,1.7031E+14,1163418.927,1946507.167,42.00885647,-87.67408037,"(42.0088564722, -87.674080374)"
TAI NAM CORPORATION,34508,88874,10001,A,4925 N BROADWAY,60640,UPTOWN,3,48,17031031200,1.7031E+14,1167456.934,1933184.891,41.97221356,-87.6596091,"(41.972213557, -87.6596091001)"
LA JALISCIENCE,4749,23661,3000,B,3239 W 26TH ST,60623,SOUTH LAWNDALE,30,22,17031840800,1.70318E+14,1155046.943,1886508.425,41.84438799,-87.7064971,"(41.8443879922, -87.7064970959)"
HOLLYWOOD TOWER MKT,1858,62539,3000,B,5701 N SHERIDAN RD,60660,EDGEWATER,77,48,17031030604,1.7031E+14,1168645.915,1938086.669,41.98563842,-87.65509432,"(41.985638421, -87.6550943233)"
A & R FOOD MART,1954411,340750,3500,B,5952 W GRAND AVE,60639,BELMONT CRAGIN,19,37,17031191302,1.70312E+14,1136148.465,1914149.527,41.92059646,-87.77519268,"(41.9205964582, -87.7751926809)"
S L PANTRY & GRILL,2013420,17935,2600,B,4759 N SHERIDAN RD,60640,UPTOWN,3,46,17031031501,1.7031E+14,1168808.076,1932041.457,41.96904667,-87.65467406,"(41.9690466747, -87.654674059)"
ANDYS FRUIT RANCH,1275209,3868,15000,A,4733 N KEDZIE AVE,60625,ALBANY PARK,14,33,17031140800,1.70311E+14,1154227.464,1931413.945,41.96762916,-87.70830369,"(41.9676291597, -87.7083036873)"
DOMINICK'S #1875,1273445,5033,39000,A,1 N HALSTED ST,60661,NEAR WEST SIDE,28,27,17031280100,1.70313E+14,1171090.968,1900270.454,41.88181563,-87.64721472,"(41.8818156316, -87.647214717)"
SAVE-A-LOT # 866,1299911,216203,,A,3939 W OGDEN AVE,60623,NORTH LAWNDALE,29,22,17031843400,1.70318E+14,1150300.621,1888988.907,41.85128849,-87.72385084,"(41.85128849, -87.72385084)"
OSAMA FOOD MART,2031620,352625,2800,B,615 E 67TH ST,60637,WOODLAWN,42,20,17031421200,1.70314E+14,1181566.424,1860686.264,41.77295752,-87.6099734,"(41.7729575221, -87.6099733981)"
EL  PASEO  BORICUA,1301216,254645,3000,B,2706 W DIVISION ST,60622,WEST TOWN,24,26,17031242600,1.70312E+14,1158083.137,1907909.83,41.9030542,-87.69477042,"(41.9030542001, -87.6947704208)"
FOOD BASKET,1682475,291625,2500,B,7205 S HALSTED ST,60621,ENGLEWOOD,68,17,17031681300,1.70317E+14,1172254.564,1857047.146,41.7631812,-87.64421502,"(41.763181195, -87.644215021)"
SHOP & SAVE MARKET,1991275,338404,63426,A,5829 S ARCHER AVE,60638,GARFIELD RIDGE,56,23,17031560700,1.70316E+14,1140672.648,1868781.976,41.79601962,-87.75968337,"(41.7960196245, -87.7596833672)"
GENES SAUSAGE SHOP AT DELI MEYER,1922145,335302,6000,B,4746 N LINCOLN AVE,60625,LINCOLN SQUARE,4,47,17031040600,1.7031E+14,1159702.057,1931499.897,41.96775366,-87.68817172,"(41.9677536575, -87.6881717161)"
ALDI INC. #96,1868821,5273,16117,A,821 W 115TH ST,60643,WEST PULLMAN,53,34,17031530300,1.70315E+14,1172808.524,1828547.02,41.68496064,-87.64302231,"(41.6849606404, -87.6430223096)"
SUPER FURNITURE & FOOD MART,2060727,357170,4000,B,5257 S ASHLAND AVE,60609,NEW CITY,61,16,17031611900,1.70316E+14,1166612.169,1869626.454,41.79782259,-87.66453688,"(41.7978225881, -87.6645368783)"
ALDI FOODS STORE #2,14004,5273,15600,A,4645 W DIVERSEY AVE,60639,HERMOSA,20,31,17031190900,1.70312E+14,1144687.324,1918165.88,41.93146094,-87.74371731,"(41.9314609382, -87.743717307)"
LOS POTRILLOS,1650212,299177,7000,B,3624 W BELMONT AVE,60618,AVONDALE,21,35,17031831100,1.70318E+14,1151517.723,1921074.037,41.93930952,-87.71853994,"(41.939309516, -87.7185399405)"
MAYFLOWER FOOD,1168793,17975,6000,B,2104 S ARCHER AVE,60616,ARMOUR SQUARE,34,25,17031841100,1.70318E+14,1175264.592,1890264.228,41.8542653,-87.63218951,"(41.8542653039, -87.6321895068)"
Municipal Foods,1478386,273724,9980,B,2559 W DIVISION ST,60622,WEST TOWN,24,26,17031242500,1.70312E+14,1158868.182,1907844.637,41.90285923,-87.69188858,"(41.9028592342, -87.6918885843)"
SUPERMERCADO TEPECOA GUERRERO,1493584,277252,3500,B,3629 W 63RD ST,60629,WEST LAWN,65,13,17031650302,1.70317E+14,1153106.483,1862551.204,41.77868472,-87.71425166,"(41.7786847162, -87.7142516633)"
ALDI INC STORE #16,1226990,5273,20848,A,1246 E 87TH ST,60619,AVALON PARK,45,8,17031834300,1.70318E+14,1186130.222,1847590.652,41.73691535,-87.59365662,"(41.736915346, -87.5936566218)"
ALDI FOODS STORE #26,13998,5273,15540,A,2600 N CLYBOURN AVE,60614,LINCOLN PARK,7,32,17031070700,1.70311E+14,1163612.486,1917295.732,41.928695,-87.67419508,"(41.9286950012, -87.6741950831)"
KAPS FOODS,57817,18562,4100,B,3557 S CALIFORNIA AVE,60632,BRIGHTON PARK,58,12,17031580100,1.70316E+14,1158326.483,1880700.349,41.82838364,-87.69462017,"(41.8283836447, -87.69462017)"
SANABEL GROCERY & BAKERY,2009055,349374,6200,B,4213 N KEDZIE AVE,60618,IRVING PARK,16,33,17031160601,1.70312E+14,1154336.816,1927899.606,41.9579834,-87.70799592,"(41.9579834025, -87.7079959151)"
ALLA'S FOOD,1068956,204849,3500,B,2024 E 93RD ST,60617,CALUMET HEIGHTS,48,8,17031480400,1.70315E+14,1191449.683,1843746.804,41.72624035,-87.57429226,"(41.7262403487, -87.5742922611)"
AL BAYAN GROCERY INC.,1542202,282078,2500,B,3134 N NARRAGANSETT AVE,60634,BELMONT CRAGIN,19,36,17031831500,1.70318E+14,1133152.97,1920313.703,41.93756465,-87.78605437,"(41.9375646502, -87.7860543686)"
GENE'S SAUSAGE SHOP & DELI INC,1876,371,5000,B,5330 W BELMONT AVE,60641,PORTAGE PARK,15,38,17031151100,1.70312E+14,1140128.164,1920795.598,41.93876197,-87.76040707,"(41.9387619658, -87.7604070714)"
RIGO'S GROCERY,1144306,215370,2500,B,2858 S LAWNDALE AVE,60623,SOUTH LAWNDALE,30,22,17031301702,1.70313E+14,1152136.584,1884500.849,41.83893675,-87.71723055,"(41.8389367453, -87.7172305546)"
WALMART,,,,A,10900 S DOTY AVE W,60628,PULLMAN,50,9,17031500200,1.70315E+14,1185444.674,1832788.876,41.69631368,-87.59663224,"(41.69631368, -87.59663224)"
CHICAGO PRODUCE,1865,368,13500,A,3500 W LAWRENCE AVE,60625,ALBANY PARK,14,39,17031140200,1.70311E+14,1152167.179,1931711.03,41.96848537,-87.71587133,"(41.9684853733, -87.7158713295)"
"PARK FOODS OF 71ST STREET,INC.",1677517,300221,3500,B,2612 W 71ST ST,60629,CHICAGO LAWN,66,18,17031660900,1.70317E+14,1160100.053,1857512.637,41.76471714,-87.68875098,"(41.7647171389, -87.6887509815)"
PETE'S PRODUCE,1476553,273114,5000,B,1543 E 87TH ST,60619,CALUMET HEIGHTS,48,8,17031480200,1.70315E+14,1188145.963,1847564.374,41.73679546,-87.58627251,"(41.7367954576, -87.5862725091)"
TRADER JOE'S EAST,1592120,211718,10615,A,44 E ONTARIO ST,60611,NEAR NORTH SIDE,8,42,17031081500,1.70311E+14,1176714.099,1904540.637,41.89340802,-87.62643774,"(41.8934080204, -87.6264377426)"
EMILIO'S PRODUCE,1675623,298914,2500,B,2294 N MILWAUKEE AVE,60647,LOGAN SQUARE,22,1,17031221400,1.70312E+14,1157396.781,1915026.703,41.92259747,-87.69709763,"(41.9225974657, -87.6970976291)"
"GRAND PALACE SUPERMARKET, INC",49648,17200,3000,B,7131 S STATE ST,60619,GREATER GRAND CROSSING,69,6,17031691000,1.70317E+14,1177563.58,1857597.706,41.76457363,-87.62473997,"(41.7645736329, -87.6247399651)"
ALDI #70,1997726,5273,18263,A,7627 S ASHLAND AVE,60620,AUBURN GRESHAM,71,17,17031710300,1.70317E+14,1167042.618,1854021.323,41.75499092,-87.66340416,"(41.7549909175, -87.6634041558)"
SUPER MERCADO LA CHIQUITA,6054,3546,9500,B,3555 W 26TH ST,60623,SOUTH LAWNDALE,30,22,17031301600,1.70313E+14,1152851.981,1886452.834,41.84427912,-87.71455377,"(41.8442791237, -87.7145537663)"
ALDI'S # 26,1821323,5273,16550,A,10532 S INDIANAPOLIS AVE,60617,EAST SIDE,52,10,17031520100,1.70315E+14,1204788.063,1835640.292,41.70366236,-87.52571243,"(41.7036623609, -87.5257124268)"
CARNICERIA RICARDO,35191,15006,5000,B,4419 W DIVERSEY AVE,60639,HERMOSA,20,31,17031200200,1.70312E+14,1146359.156,1918206.521,41.93154075,-87.73757251,"(41.9315407469, -87.7375725127)"
LINDO MICHOACAN,42744,86194,8600,B,3142 W LAWRENCE AVE,60625,ALBANY PARK,14,33,17031140100,1.70311E+14,1154365.277,1931758.826,41.96857277,-87.7077877,"(41.9685727721, -87.7077877013)"
NAYAB MART,1444872,269649,3125,B,2449 W DEVON AVE,60659,WEST RIDGE,2,50,17031020802,1.7031E+14,1158623.872,1942364.61,41.99758912,-87.69183691,"(41.9975891244, -87.6918369148)"
EDGEWATER PRODUCE,16765,6928,7400,B,5509 N CLARK ST,60640,EDGEWATER,77,48,17031030800,1.7031E+14,1165060.268,1936722.179,41.98197138,-87.66832103,"(41.981971377, -87.6683210323)"
JEWEL FOOD STORE #3224,1144401,259,29299,A,6430 W IRVING PARK RD,60634,DUNNING,17,38,17031170100,1.70312E+14,1132667.451,1925939.24,41.95301023,-87.78770716,"(41.9530102332, -87.7877071626)"
LOS SAUCES GROCERY,1223250,230035,2800,B,5852 W DIVERSEY AVE,60639,BELMONT CRAGIN,19,30,17031190402,1.70312E+14,1136654.046,1918049.07,41.9312882,-87.77324145,"(41.9312882001, -87.7732414533)"
THE WAREHOUSE,1843355,315225,6000,B,538 W 119TH ST,60628,WEST PULLMAN,53,34,17031530200,1.70315E+14,1174692.38,1826020.558,41.677986,-87.63620086,"(41.6779860017, -87.6362008551)"
ARISTA FOODS,1473367,271891,10000,A,112 N MAY ST,60607,NEAR WEST SIDE,28,27,17031833000,1.70318E+14,1168768.827,1900830.156,41.88340212,-87.65572529,"(41.8834021216, -87.6557252931)"
MORSE FOOD AND MEAT MARKET,1518304,280735,17000,A,1430 W MORSE AVE,60626,ROGERS PARK,1,49,17031010600,1.7031E+14,1165298.323,1946207.741,42.00799492,-87.66717415,"(42.0079949199, -87.6671741467)"
"CALABRIA IMPORTS, INC.",1357606,264103,3100,B,1905 W 103RD ST,60643,BEVERLY,72,19,17031720700,1.70317E+14,1165555.282,1836329.433,41.70647332,-87.66935499,"(41.7064733245, -87.6693549885)"
KOL TUV KOSHER FOODS INC,12952,6158,3000,B,2938 W DEVON AVE,60659,WEST RIDGE,2,50,17031020601,1.7031E+14,1155422.897,1942345.28,41.99760128,-87.70361267,"(41.9976012808, -87.7036126719)"
ALDI INC # 62,13984,5273,12646,A,6220 N CALIFORNIA AVE,60659,WEST RIDGE,2,50,17031020702,1.7031E+14,1156498.066,1941267.105,41.99462096,-87.69968686,"(41.9946209588, -87.6996868624)"
JEWEL FOOD  STORE # 3345,1142451,259,60271,A,1224 S WABASH AVE,60605,NEAR SOUTH SIDE,33,2,17031330100,1.70313E+14,1176924.005,1894818.198,41.86672435,-87.62596115,"(41.8667243541, -87.6259611484)"
WASHINGTON GROCERY,6249,23967,4200,B,4139 W FIFTH AVE,60624,WEST GARFIELD PARK,26,24,17031261000,1.70313E+14,1148829.351,1896476.401,41.87186361,-87.72905737,"(41.8718636117, -87.7290573726)"
FAIRWAY FOOD,2031993,352796,3000,B,2900 E 79TH ST,60649,SOUTH SHORE,43,7,17031431301,1.70314E+14,1196899.785,1853184.817,41.75200539,-87.55401542,"(41.7520053919, -87.5540154169)"
FRESH MARKET PLACE,1382145,266140,20000,A,2600 N CENTRAL AVE,60639,BELMONT CRAGIN,19,30,17031190602,1.70312E+14,1138560.743,1916734.936,41.92764768,-87.76626652,"(41.9276476796, -87.7662665211)"
THE FISH KEG INC,4908,3299,4000,B,2233 W HOWARD ST,60645,WEST RIDGE,2,49,17031020100,1.7031E+14,1160144.837,1950322.625,42.01939474,-87.6860205,"(42.0193947424, -87.6860204976)"
NANCE FOOD MART,4756,3277,4500,B,10935 S WENTWORTH AVE,60628,ROSELAND,49,34,17031491000,1.70315E+14,1176930.576,1832294.683,41.69515316,-87.62782024,"(41.6951531575, -87.6278202407)"
RIVIERA FOODS,39650,89265,3500,B,3218 N HARLEM AVE,60634,DUNNING,17,36,17031170800,1.70312E+14,1127474.975,1920652.267,41.93859128,-87.8069148,"(41.9385912816, -87.8069148007)"
WILLIAM'S PRODUCE,2079521,359604,6375,B,6309 W GRAND AVE,60639,BELMONT CRAGIN,19,29,17031191301,1.70312E+14,1133912.47,1914608.009,41.92189423,-87.78339752,"(41.9218942299, -87.78339752)"
CHATHAM FOOD MARKET,1904290,331037,4500,B,327 E 79TH ST,60619,CHATHAM,44,6,17031440300,1.70314E+14,1179727.919,1852659.216,41.75097268,-87.61695788,"(41.7509726753, -87.6169578802)"
JEWEL FOOD STORE #3442,1406,259,29060,A,4042 W FOSTER AVE,60630,NORTH PARK,13,39,17031130200,1.70311E+14,1148348.854,1934285.341,41.97562411,-87.72984456,"(41.9756241124, -87.7298445616)"
PAULINA MARKET,1680919,301699,10000,A,3501 N LINCOLN AVE,60657,LAKE VIEW,6,32,17031831900,,1164057.216,1923333.711,41.94525416,-87.67238979,"(41.9452541584, -87.6723897932)"
CARNICERIA GUANJUATO #3,17340,63206,8800,B,1436 N ASHLAND AVE,60622,WEST TOWN,24,1,17031241500,1.70312E+14,1165420.746,1909810.008,41.90811537,-87.66776383,"(41.9081153739, -87.6677638335)"
PETE'S FRESH MARKET,1598145,292834,50000,A,3448 E 118TH ST,60617,HEGEWISCH,55,10,17031550100,1.70316E+14,1201135.133,1827369.419,41.68105956,-87.53936754,"(41.6810595555, -87.5393675414)"
WHOLE FOODS MARKET,1678035,86298,6335,B,6020 N CICERO AVE,60646,FOREST GLEN,12,39,17031120200,1.70311E+14,1143245.244,1939669.138,41.99049477,-87.74847741,"(41.9904947718, -87.7484774142)"
E.M. GROCERIES,4863,3289,4500,B,5358 S CARPENTER ST,60609,NEW CITY,61,16,17031612000,1.70316E+14,1170189.627,1869037.379,41.79612897,-87.6514349,"(41.7961289732, -87.6514349028)"
SAVE-A-LOT #860,1196076,216203,12500,A,4439 W 63RD ST,60629,WEST LAWN,65,13,17031650301,1.70317E+14,1147705.019,1862415.008,41.77841597,-87.73405757,"(41.7784159744, -87.7340575715)"
ATHENS GROCERY,971,185,2600,B,324 S HALSTED ST,60661,NEAR WEST SIDE,28,27,17031833100,1.70318E+14,1171063.79,1898574.396,41.87716213,-87.64736429,"(41.8771621281, -87.6473642897)"
JEWEL FOOD STORE #3092,1411,259,10001,A,1655 E 95TH ST,60617,SOUTH DEERING,51,7,17031510300,1.70315E+14,1189107.784,1842276.927,41.7222632,-87.58291763,"(41.7222631981, -87.5829176346)"
THRIFTY FOOD,1045545,28478,4000,B,928 W WILSON AVE,60640,UPTOWN,3,46,17031031501,1.7031E+14,1169121.324,1930772.462,41.9655577,-87.65355928,"(41.9655577007, -87.653559279)"
DOMINICK'S # 1100,41629,5033,10001,A,3145 S ASHLAND AVE,60608,MCKINLEY PARK,59,11,17031840400,1.70318E+14,1166221.872,1883706.591,41.83646835,-87.6655669,"(41.8364683477, -87.6655669021)"
SAVE-A-LOT # 854,1245433,216203,15000,A,7908 S HALSTED ST,60620,AUBURN GRESHAM,71,17,17031710800,1.70317E+14,1172300.997,1852361.578,41.75032239,-87.64418241,"(41.7503223874, -87.6441824061)"
"CARNICERIA LA GLORIA NO. 2, INC.",1514813,279304,7500,B,2744 W 55TH ST,60632,GAGE PARK,63,14,17031630500,1.70316E+14,1158820.849,1868105.555,41.79381183,-87.6931506,"(41.7938118263, -87.6931506024)"
DOMINICK'S # 113/1113,41633,5033,10001,A,6312 N NAGLE AVE,60646,NORWOOD PARK,10,41,17031100200,1.70311E+14,1132586.749,1941599.641,41.99598529,-87.78763712,"(41.9959852861, -87.7876371171)"
STRACK & VAN TIL,1798602,308026,65400,A,2627 N ELSTON AVE,60647,LOGAN SQUARE,22,1,17031830900,1.70318E+14,1161027.148,1917565.451,41.92948927,-87.68368782,"(41.929489274, -87.6836878249)"
CORCORANS PANTRY INC,9412,4333,4200,B,1105 W BRYN MAWR AVE,60660,EDGEWATER,77,48,17031030701,1.7031E+14,1167789.171,1937316.92,41.98354479,-87.65826767,"(41.9835447852, -87.6582676725)"
JEWEL FOOD STORE #3477,1372,259,17676,A,4734 N CUMBERLAND AVE,60656,OHARE,76,36,17031760802,1.70318E+14,1119277.591,1930595.659,41.9660114,-87.83683117,"(41.9660114013, -87.8368311691)"
SUPERMERCADO EL GUERO NO. 8,20973,8662,14000,A,2101 W CERMAK RD,60608,LOWER WEST SIDE,31,25,17031841300,1.70318E+14,1162678.162,1889348.683,41.85202569,-87.67841224,"(41.8520256918, -87.6784122433)"
3600 COMMISSARY,24279,9830,3800,B,3600 N LAKE SHORE DR,60613,LAKE VIEW,6,46,17031060900,1.70311E+14,1171865.819,1924645.038,41.94868367,-87.64364976,"(41.9486836744, -87.6436497585)"
LA CIENEGA SUPER FOOD INC,65173,20310,10000,A,10736 S EWING AVE,60617,EAST SIDE,52,10,17031520300,1.70315E+14,1202148.292,1834213.572,41.69981485,-87.53542689,"(41.6998148465, -87.5354268905)"
"MORELIA SUPERMARKET #2, INC.",1648410,298039,12000,A,4833 W DIVERSEY AVE,60639,BELMONT CRAGIN,19,31,17031190800,1.70312E+14,1143539.264,1918138.099,41.93140629,-87.74793697,"(41.931406291, -87.7479369735)"
BURNHAM PLAZA MART,2014232,350131,2950,B,828 S WABASH AVE,60605,LOOP,32,2,17031320600,1.70313E+14,1176878.787,1896537.846,41.8714442,-87.62607513,"(41.8714441963, -87.6260751303)"
INTERNATIONAL FOODS NW INC,1129,215,14000,A,4404 W FULLERTON AVE,60639,HERMOSA,20,31,17031200200,1.70312E+14,1146590.136,1915632.373,41.92447264,-87.73678951,"(41.9244726356, -87.736789505)"
MICHAELS FRESH MARKET,2043177,354856,41000,A,1300 E 47TH ST,60653,KENWOOD,39,4,17031390100,1.70314E+14,1185546.308,1874136.304,41.80977273,-87.59496089,"(41.8097727266, -87.5949608909)"
M & D VARIETY STORE,18355,7524,4500,B,1300 W 111TH ST,60643,MORGAN PARK,75,34,17031750100,1.70318E+14,1169607.667,1831203.275,41.69231963,-87.65466321,"(41.6923196266, -87.6546632113)"
JEWEL FOOD STORE #3344,1192905,259,63407,A,1220 S ASHLAND AVE,60608,NEAR WEST SIDE,28,2,17031842900,1.70318E+14,1165876.732,1894558.435,41.86625418,-87.66652414,"(41.8662541761, -87.6665241401)"
79 FOOD BASKET,1958784,341069,3000,B,1351 W 79TH ST,60620,AUBURN GRESHAM,71,21,17031710700,1.70317E+14,1168478.938,1852330.815,41.75032112,-87.65818905,"(41.7503211206, -87.6581890529)"
JEWEL-OSCO #3632,2037181,259,62349,A,3630 N SOUTHPORT AVE,60613,LAKE VIEW,6,44,17031060400,1.70311E+14,1166281.151,1924353.278,41.94800455,-87.66418623,"(41.9480045508, -87.6641862307)"
ROSE-RIDGE FOODS,1145417,216010,3000,B,10500 S MICHIGAN AVE,60628,ROSELAND,49,9,17031490902,1.70315E+14,1178820.315,1835321.04,41.70341522,-87.62080968,"(41.7034152187, -87.6208096791)"
COTTAGE GROVE FOOD MART,1898994,329883,4000,B,6307 S COTTAGE GROVE AVE,60637,WOODLAWN,42,20,17031420800,1.70314E+14,1182688.792,1863317.521,41.78015196,-87.60577752,"(41.7801519592, -87.6057775241)"
T & Z MEAT,1974575,343806,3000,B,3021 N CICERO AVE,60641,BELMONT CRAGIN,19,31,17031190100,1.70312E+14,1143886.979,1919747.429,41.93581593,-87.7466187,"(41.9358159257, -87.7466186972)"
"LA LOMA ""CARNICERIA Y TAQUERIA""",49880,17241,4501,B,2535 N LARAMIE AVE,60639,BELMONT CRAGIN,19,31,17031190800,1.70312E+14,1141327.094,1916530.522,41.92703609,-87.75610618,"(41.9270360931, -87.756106183)"
CARNICERIA JIMENEZ #2,48081,16943,19000,A,3850 W FULLERTON AVE,60647,LOGAN SQUARE,22,30,17031220701,1.70312E+14,1150082.915,1915713.668,41.92462832,-87.72395332,"(41.9246283205, -87.723953321)"
HOA NOM CO,8425,62866,4200,B,1101 W ARGYLE ST,60640,UPTOWN,3,48,17031031200,1.7031E+14,1167937.142,1933534.056,41.9731613,-87.65783318,"(41.9731612999, -87.6578331796)"
ROYLA BLUE FOODS,27007,63611,2500,B,4359 S CAMPBELL AVE,60632,BRIGHTON PARK,58,12,17031580700,1.70316E+14,1160464.17,1875452.004,41.81393768,-87.68692201,"(41.8139376802, -87.686922014)"
JEWEL FOOD STORE #3057,1400,259,21785,A,6057 S WESTERN AVE,60636,CHICAGO LAWN,66,16,17031835000,1.70318E+14,1161455.12,1864207.62,41.78306114,-87.68359887,"(41.7830611377, -87.6835988697)"
QUINTESSENCE,2033012,350756,3000,B,1532 N PULASKI RD,60651,HUMBOLDT PARK,23,30,17031230600,1.70312E+14,1149393.379,1910052.789,41.90910776,-87.72663415,"(41.909107755, -87.7266341469)"
CERMAK PRODUCE,1476654,273149,29000,A,4234 N KEDZIE AVE,60618,IRVING PARK,16,33,17031160501,1.70312E+14,1154249.872,1928122.48,41.95859672,-87.70830958,"(41.9585967247, -87.7083095759)"
OLD WORLD MARKET,7507,3851,10001,A,5129 N BROADWAY,60640,UPTOWN,3,48,17031031200,1.7031E+14,1167423.681,1934373.334,41.9754754,-87.65969701,"(41.9754753986, -87.6596970117)"
MEHRAB ZABIHA MEAT & TOBACCO,1094121,207539,3000,B,2445 W DEVON AVE,60659,WEST RIDGE,2,50,17031020802,1.7031E+14,1158669.747,1942366.008,41.99759202,-87.69166812,"(41.9975920168, -87.6916681219)"
PAULINA SUPER MARKET INC,4851,3286,7000,B,7622 N PAULINA ST,60626,ROGERS PARK,1,49,17031010100,1.7031E+14,1163617.239,1950601.539,42.02008732,-87.67323456,"(42.020087315, -87.6732345632)"
ALDI FOODS-STORE #27,13986,5273,12300,A,3363 N MILWAUKEE AVE,60641,IRVING PARK,16,30,17031161300,1.70312E+14,1148660.977,1922173.951,41.94238351,-87.72901086,"(41.9423835134, -87.7290108595)"
ALDI INC STORE #62,14006,5273,9495,B,1739 W CERMAK RD,60608,LOWER WEST SIDE,31,25,17031843200,1.70318E+14,1164949.346,1889411.852,41.8521512,-87.6700746,"(41.8521511995, -87.6700746019)"
"MY RANCH, INC.",1899688,20694,8500,B,4650 N SHERIDAN RD,60640,UPTOWN,3,46,17031830700,1.7031E+14,1168740.462,1931286.882,41.96697757,-87.65494464,"(41.9669775683, -87.6549446417)"
SAVE-A-LOT  #851,1167119,216203,114100,A,10700 S HALSTED ST,60628,MORGAN PARK,75,34,17031750100,1.70318E+14,1172839.769,1833862.847,41.69954741,-87.64275192,"(41.6995474147, -87.6427519151)"
MARIO 'S BUTCHER SHOP FD CNTR,4248,85432,10001,A,5817 W MADISON ST,60644,AUSTIN,25,29,17031252101,1.70313E+14,1137524.334,1899380.951,41.88004498,-87.77049338,"(41.8800449808, -87.7704933793)"
BOCKWINKELS,1491357,276156,7200,B,222 N COLUMBUS DR,60601,LOOP,32,42,17031320100,1.70313E+14,1178260.623,1901977.453,41.88633942,-87.62083615,"(41.886339416, -87.62083615)"
SUPERMERCADO ALEX,1772307,4076,9375,B,4134 W 31ST ST,60623,SOUTH LAWNDALE,30,22,17031301803,1.70313E+14,1149168.237,1883754.741,41.83694724,-87.72814236,"(41.8369472381, -87.7281423632)"
HALAL MEAT & GROCERY,55665,18191,2500,B,1414 W DEVON AVE,60660,ROGERS PARK,1,40,17031010600,1.7031E+14,1165598.639,1942654.154,41.99823739,-87.6661711,"(41.9982373871, -87.6661711005)"
SOUTH SHORE FOOD MARKET INC.,2008403,349092,3000,B,7501 S JEFFERY BLVD,60649,SOUTH SHORE,43,8,17031431200,1.70314E+14,1190880.91,1855602.529,41.75878729,-87.57599348,"(41.7587872873, -87.5759934845)"
SUPERMERCADO EL MEXICANO,1840895,295467,4387,B,6701 N CLARK ST,60626,ROGERS PARK,1,49,17031830600,1.70318E+14,1163903.508,1944589.819,42.00358497,-87.67235193,"(42.0035849743, -87.6723519319)"
LA PROVIDENCIA FOOD MART,16986,6991,2572,B,1658 W 21ST ST,60608,LOWER WEST SIDE,31,25,17031310800,1.70313E+14,1165383.899,1890168.895,41.85421937,-87.66845816,"(41.8542193742, -87.6684581591)"
ALDI #79,1515471,5273,15150,A,7800 S SOUTH CHICAGO AVE,60619,AVALON PARK,45,5,17031834300,1.70318E+14,1187754.155,1853373.518,41.75274564,-87.58752349,"(41.7527456405, -87.5875234853)"
DOMINICK'S # 86/1086,41625,5033,10001,A,3350 N WESTERN AVE,60618,NORTH CENTER,5,47,17031843700,1.70318E+14,1159720.98,1922387.081,41.9427472,-87.68835432,"(41.9427471952, -87.6883543215)"
FAMILY PRIDE,77270,22785,12500,A,10601 S PULASKI RD,60655,MOUNT GREENWOOD,74,19,17031740200,1.70317E+14,1151594.306,1833996.48,41.70035527,-87.7205409,"(41.7003552742, -87.7205408964)"
ALDI INC #58,13974,5273,12571,A,2431 W MONTROSE AVE,60618,NORTH CENTER,5,47,17031050300,1.70311E+14,1159231.783,1929105.896,41.9611941,-87.68996697,"(41.9611940986, -87.6899669704)"
CARNICERIA LA VILLA #2,2060542,357089,3289,B,5800 W GRAND AVE,60639,BELMONT CRAGIN,19,37,17031191302,1.70312E+14,1137365.901,1913858.093,41.9197749,-87.77072653,"(41.919774901, -87.7707265258)"
TREASURE ISLAND FOODS INC,1303,85291,10001,A,75 W ELM ST,60610,NEAR NORTH SIDE,8,42,17031081000,1.70311E+14,1175348.304,1908034.504,41.90302614,-87.63134877,"(41.9030261368, -87.6313487722)"
JEWEL FOOD STORE #3241,1398,259,24262,A,1341 N PAULINA ST,60622,WEST TOWN,24,1,17031241500,1.70312E+14,1164854.812,1909123.544,41.9062437,-87.66986228,"(41.9062437031, -87.6698622813)"
WHOLE FOODS MARKET,1933690,86298,74883,A,1550 N KINGSBURY ST,60642,NEAR NORTH SIDE,8,32,17031842200,1.70318E+14,1169422.033,1910309.104,41.90939879,-87.6530507,"(41.9093987878, -87.6530506979)"
JOSEPH FOOD MART,6157,62754,3000,B,8235 W IRVING PARK RD,60634,DUNNING,17,36,17031170500,1.70312E+14,1120303.897,1925502.425,41.95201856,-87.83316684,"(41.9520185577, -87.8331668434)"
HARPER FOODS,57683,18537,3300,B,1455 E 57TH ST,60637,HYDE PARK,41,5,17031411100,1.70314E+14,1187084.079,1867457.995,41.79141057,-87.58953263,"(41.7914105694, -87.5895326278)"
POTASH BROS. SUPERMARKET,164,21,12000,A,1525 N CLARK ST,60610,NEAR NORTH SIDE,8,42,17031080201,1.70311E+14,1175288.471,1910618.448,41.91011794,-87.63149089,"(41.9101179449, -87.6314908914)"
Supermercado Santos,1091886,206261,4000,B,4045 W 31ST ST,60623,SOUTH LAWNDALE,30,22,17031830500,1.70318E+14,1149716.405,1883686.719,41.83674996,-87.72613266,"(41.8367499608, -87.7261326568)"
CERMAK PRODUCE,53313,17784,10000,A,4800 W DIVERSEY AVE,60639,BELMONT CRAGIN,19,31,17031190200,1.70312E+14,1143869.848,1918226.044,41.93164142,-87.74671991,"(41.9316414204, -87.7467199106)"
TRADER JOE'S EAST,1277005,211718,11600,A,1840 N CLYBOURN AVE,60614,LINCOLN PARK,7,32,17031832600,1.70318E+14,1168978.244,1912136.792,41.91442371,-87.65462784,"(41.9144237141, -87.654627843)"
"TONY'S FINER FOODS ENTERPRISES, INC.",1717529,305203,31000,A,4137 N ELSTON AVE,60618,IRVING PARK,16,39,17031160400,1.70312E+14,1150401.299,1927194.414,41.9561262,-87.72248283,"(41.9561262015, -87.7224828263)"
Natural Country Deli,2017781,350688,3500,B,6452 N MILWAUKEE AVE,60631,NORWOOD PARK,10,41,17031100200,1.70311E+14,1132184.543,1942510.932,41.99849297,-87.78909537,"(41.9984929696, -87.7890953687)"
LOGAN CERTIFIED FOODS CORP,1046303,23391,4500,B,2857 W DIVERSEY AVE,60647,LOGAN SQUARE,22,35,17031220400,1.70312E+14,1156600.297,1918436.531,41.93197047,-87.69993162,"(41.93197047, -87.699931619)"
JEWEL FOOD STORE #3170,1366,259,30374,A,5320 S PULASKI RD,60632,WEST ELSDON,62,23,17031620200,1.70316E+14,1150568.177,1868914.952,41.79619759,-87.72339188,"(41.7961975914, -87.7233918834)"
MOUNSEF INTERNATIONAL,21126,86704,10001,A,4738 N KEDZIE AVE,60625,ALBANY PARK,14,33,17031140701,1.70311E+14,1154145.71,1931473.088,41.96779309,-87.7086027,"(41.9677930872, -87.7086027049)"
"SEVEN NINE ELEVEN FOOD MART, INC.",2036,401,4300,B,4884 S ARCHER AVE,60632,ARCHER HEIGHTS,57,14,17031570400,1.70316E+14,1151496.512,1871991.203,41.80462115,-87.71990707,"(41.8046211506, -87.7199070655)"
A & R FOOD MART,9125,4227,2500,B,5952 W GRAND AVE,60639,BELMONT CRAGIN,19,37,17031191302,1.70312E+14,1136148.465,1914149.527,41.92059646,-87.77519268,"(41.9205964582, -87.7751926809)"
GRAND FOOD MARKET,1221783,223107,3952,B,5202 W GRAND AVE,60639,BELMONT CRAGIN,19,37,17031191200,1.70312E+14,1141369.196,1912898.166,41.91706775,-87.75604133,"(41.9170677465, -87.7560413324)"
PETE'S MEAT & GROCERY #2,1646096,296662,7500,B,2001 W 71ST ST,60636,WEST ENGLEWOOD,67,17,17031672000,1.70317E+14,1164235.477,1857536.331,41.76469612,-87.67359278,"(41.764696121, -87.6735927847)"
FIVE STAR CERTIFIED INC,7168,3771,5000,B,935 W 87TH ST,60620,AUBURN GRESHAM,71,21,17031711400,1.70317E+14,1171458.618,1847102.195,41.73590841,-87.64742288,"(41.7359084057, -87.6474228803)"
Dominick's #1703,1574461,5033,49320,A,255 E GRAND AVE,60611,NEAR NORTH SIDE,8,42,17031081403,1.70311E+14,1178351.17,1903928.033,41.89168984,-87.62044413,"(41.8916898398, -87.6204441348)"
SUPER MERCADO EL GUERRO,7546,3857,9375,B,1701 W 47TH ST,60609,NEW CITY,61,20,17031611300,1.70316E+14,1165786.546,1873500.583,41.80847124,-87.66745451,"(41.8084712383, -87.6674545133)"
PETE'S FRESH SUPERMARKET,1771242,312119,,A,2526 W CERMAK RD,60608,SOUTH LAWNDALE,30,28,17031840700,1.70318E+14,1159779.467,1889354.072,41.85210065,-87.68905111,"(41.85210065, -87.68905111)"
Chicago Health - Maple Street,2065274,357879,2900,B,22 W MAPLE ST,60610,NEAR NORTH SIDE,8,42,17031081100,1.70311E+14,1175919.202,1907658.874,41.90198255,-87.6292631,"(41.9019825524, -87.6292631031)"
NEW POP-IN,1719179,306063,8784,B,413 S KEDZIE AVE,60612,EAST GARFIELD PARK,27,28,17031271200,1.70313E+14,1155148.678,1897819.117,41.87542375,-87.70582036,"(41.8754237451, -87.7058203625)"
"Kan-Zaman Mart, Inc.",1119908,209575,4600,B,2005 S MICHIGAN AVE,60616,NEAR SOUTH SIDE,33,2,17031330100,1.70313E+14,1177567.032,1890666.648,41.85531767,-87.62372652,"(41.855317671, -87.6237265152)"
DEVON MARKET,1042888,201952,18500,A,1440 W DEVON AVE,60660,ROGERS PARK,1,40,17031010600,1.7031E+14,1165344.955,1942648.85,41.99822825,-87.66710447,"(41.9982282538, -87.6671044665)"
JEWEL FOOD STORE #3176,1404,259,32294,A,9400 S ASHLAND AVE,60620,WASHINGTON HEIGHTS,73,21,17031730300,1.70317E+14,1167281.295,1842343.881,41.72294122,-87.66286287,"(41.7229412182, -87.6628628713)"
ORLEANS MARKET,23467,9485,3002,B,316 W ILLINOIS ST,60610,NEAR NORTH SIDE,8,42,17031081800,1.70311E+14,1174028.504,1903591.667,41.89086429,-87.63632919,"(41.8908642852, -87.6363291879)"
CAESAR'S FOODS INC,13670,6312,10001,A,901 N DAMEN AVE,60622,WEST TOWN,24,32,17031242200,1.70312E+14,1162946.627,1906024.244,41.89777928,-87.67695887,"(41.8977792769, -87.6769588663)"
HAPPY FOODS,1618660,294177,11000,A,6783 N NORTHWEST HWY,60631,EDISON PARK,9,41,17031090200,1.70311E+14,1124182.694,1944613.811,42.00439926,-87.81848576,"(42.0043992612, -87.8184857554)"
"WAY LOW DISCOUNT FOOD, INC.",41036,16053,2500,B,1551 S KEDZIE AVE,60623,NORTH LAWNDALE,29,24,17031843100,1.70318E+14,1155321.423,1892143.566,41.85984596,-87.70533855,"(41.8598459614, -87.705338554)"
J R GROCERY STORE,5644,3466,10001,A,505 E 134TH ST,60827,RIVERDALE,54,9,17031540101,1.70315E+14,1182103.266,1816525.013,41.65176106,-87.60936661,"(41.6517610645, -87.6093666123)"
CENTRO MARKET,66257,20469,9100,B,5153 S KEDZIE AVE,60632,GAGE PARK,63,14,17031630400,1.70316E+14,1155963.76,1870068.76,41.79925704,-87.70357471,"(41.7992570437, -87.7035747066)"
SAVE-A-LOT  #852,1145759,216203,14166,A,7240 S STONY ISLAND AVE,60649,SOUTH SHORE,43,5,17031430400,1.70314E+14,1188030.885,1857120.957,41.76302237,-87.58639016,"(41.7630223653, -87.5863901619)"
"TONY'S FINER FOODS ENTERPRISES, INC.",1717532,305203,33000,A,4608 W BELMONT AVE,60641,PORTAGE PARK,15,30,17031151002,1.70312E+14,1144945.503,1920912.785,41.93899382,-87.74269899,"(41.9389938243, -87.7426989895)"
FOOD 4 LESS MIDWEST #789,1272529,251246,64486,A,4620 S DAMEN AVE,60609,NEW CITY,61,12,17031610300,1.70316E+14,1163694.548,1873920.779,41.80966853,-87.6751157,"(41.809668528, -87.6751156964)"
ADAMS FOOD MART,1817376,316090,2500,B,559 N LARAMIE AVE,60644,AUSTIN,25,28,17031251600,1.70313E+14,1141632.26,1903412.652,41.89103355,-87.75530965,"(41.8910335471, -87.7553096457)"
ALDI INC STORE 14,1242812,5273,15000,A,5629 W FILLMORE ST,60644,AUSTIN,25,29,17031831400,1.70318E+14,1138888.16,1894751.192,41.86731565,-87.76559794,"(41.8673156479, -87.765597943)"
RICHWELL MARKET,1070189,205927,7500,B,1835 S CANAL ST,60616,LOWER WEST SIDE,31,25,17031843200,1.70318E+14,1173469.326,1891121.287,41.85665718,-87.63875335,"(41.8566571782, -87.6387533453)"
DOMINICK'S # 12/0012,41645,5033,10001,A,6009 N BROADWAY,60660,EDGEWATER,77,48,17031030101,1.7031E+14,1167254.139,1940095.836,41.99118175,-87.66015508,"(41.9911817534, -87.6601550832)"
BUDGET FINER FOODS,1337515,260726,3200,B,6604 N SHERIDAN RD,60626,ROGERS PARK,1,49,17031010502,1.7031E+14,1167008.167,1944300.998,42.00272611,-87.66093837,"(42.0027261067, -87.6609383664)"
DISCOUNT PANTRY CORPORATION,32952,14616,3600,B,4153 W 63RD ST,60629,WEST LAWN,65,13,17031650301,1.70317E+14,1149540.479,1862455.906,41.77849291,-87.72732752,"(41.7784929073, -87.727327519)"
PAR BIRDIE FOODS,28222,11464,6000,B,2234 W DEVON AVE,60659,WEST RIDGE,2,50,17031020500,1.7031E+14,1160106.823,1942489.414,41.99790097,-87.68637822,"(41.9979009735, -87.6863782179)"
JEWEL FOOD STORE #3441,1375,259,22443,A,2940 N ASHLAND AVE,60657,LAKE VIEW,6,32,17031062600,1.70311E+14,1165101.021,1919776.936,41.93547203,-87.66865454,"(41.9354720327, -87.6686545431)"
CHARLIES  SUPERMARKET INC.,1441898,268397,2500,B,2941 W MONTROSE AVE,60618,IRVING PARK,16,33,17031160601,1.70312E+14,1155799.622,1929051.344,41.96111443,-87.70258694,"(41.9611144263, -87.7025869386)"
JEWEL FOOD STORE #3501,1192909,259,56010,A,3400 N WESTERN AVE,60618,NORTH CENTER,5,47,17031843700,1.70318E+14,1159734.001,1922547.59,41.94318737,-87.68830202,"(41.9431873732, -87.6883020207)"
4343 PETES FRESH MARKET,1336669,260303,57000,A,4343 S PULASKI RD,60632,ARCHER HEIGHTS,57,14,17031570100,1.70316E+14,1150447.926,1875370.286,41.81391431,-87.72366494,"(41.8139143113, -87.7236649419)"
LA FERIA GROCERY,26609,11067,10001,A,9704 S COMMERCIAL AVE,60617,SOUTH DEERING,51,10,17031510100,1.70315E+14,1197784.63,1841132.978,41.71891216,-87.5511743,"(41.7189121563, -87.5511742972)"
POTASH BROS INC,19826,8018,10001,A,875 N STATE ST,60610,NEAR NORTH SIDE,8,42,17031081201,1.70311E+14,1176242.1,1906530.221,41.8988782,-87.62811115,"(41.8988781974, -87.6281111483)"
IMPERIAL TOWER MARKET,22624,9323,6031,B,4250 N MARINE DR,60613,UPTOWN,3,46,17031031400,1.7031E+14,1170946.917,1928768.91,41.96001995,-87.64690603,"(41.960019954, -87.6469060276)"
MOO & OINK INC,11915,5928,21500,A,4848 W MADISON ST,60644,AUSTIN,25,28,17031251800,1.70313E+14,1143906.39,1899620.062,41.88058389,-87.74705294,"(41.8805838854, -87.7470529414)"
Save-A-Lot #882,2079367,216203,16290,A,344 E 63RD ST,60637,WASHINGTON PARK,40,20,17031400800,1.70314E+14,1179590.436,1863353.334,41.78032161,-87.61713538,"(41.7803216101, -87.6171353804)"
MARKET IN THE PARK,1334026,258947,5049,B,5050 S LAKE SHORE DR,60615,KENWOOD,39,4,17031390700,1.70314E+14,1189144.325,1871655.545,41.80287978,-87.58184369,"(41.8028797781, -87.5818436939)"
SUPERMERCADO CHAPALA,32236,86830,10001,A,7117 N CLARK ST,60626,ROGERS PARK,1,49,17031010702,1.7031E+14,1163327.643,1947643.236,42.0119758,-87.67438406,"(42.0119757995, -87.6743840578)"
SUPERMERCADO GELA'S,67273,20695,3125,B,2701 S LAWNDALE AVE,60623,SOUTH LAWNDALE,30,22,17031301701,1.70313E+14,1152182.03,1885772.175,41.84242453,-87.71703032,"(41.8424245295, -87.7170303155)"
FARM SUPER MARKET,2017764,339512,3000,B,2255 W DEVON AVE,60659,WEST RIDGE,2,50,17031020901,1.7031E+14,1159880.429,1942402.423,41.99766696,-87.68721346,"(41.9976669579, -87.687213456)"
ALDI INC #53,13964,5273,13981,A,5775 S ARCHER AVE,60638,GARFIELD RIDGE,56,23,17031560700,1.70316E+14,1141308.693,1868917.732,41.79638049,-87.75734757,"(41.7963804895, -87.7573475722)"
ALDI INC #64,13976,5273,11760,A,1767 N MILWAUKEE AVE,60647,WEST TOWN,24,32,17031831000,1.70318E+14,1161475.233,1911773.994,41.91358779,-87.68220284,"(41.91358779, -87.6822028354)"
LA CASA DEL PUEBLO INC,31675,14392,10001,A,1810 S BLUE ISLAND AVE,60608,LOWER WEST SIDE,31,25,17031310600,1.70313E+14,1167219.016,1891361.481,41.85745275,-87.66168833,"(41.8574527464, -87.6616883311)"
ALDI'S,1817903,5273,15255,A,4500 N BROADWAY,60640,UPTOWN,3,46,17031830700,1.70318E+14,1168297.69,1930121.367,41.96378896,-87.65660649,"(41.9637889643, -87.6566064924)"
FAIRPLAY FINER FOOD,10940,86481,10001,A,2200 S WESTERN AVE,60608,LOWER WEST SIDE,31,25,17031841300,1.70318E+14,1160669.426,1889318.197,41.85198384,-87.6857857,"(41.8519838396, -87.6857857042)"
LARAMIE BAKERY & DELI,2014141,350093,12331,A,3232 N HARLEM AVE,60634,DUNNING,17,36,17031170800,1.70312E+14,1127470.211,1920796.068,41.93898597,-87.80692906,"(41.9389859689, -87.8069290648)"
B & H FOOD & GROCERY,6068,3550,4500,B,713 S ALBANY AVE,60612,EAST GARFIELD PARK,27,28,17031837300,1.70318E+14,1155850.757,1896704.149,41.87235004,-87.70327264,"(41.872350043, -87.7032726418)"
FRUTERIA EL MERCADO,21239,8832,5500,B,2759 S SPAULDING AVE,60623,SOUTH LAWNDALE,30,22,17031840800,1.70318E+14,1154858.008,1885248.053,41.84093316,-87.70722418,"(41.8409331636, -87.7072241769)"
ALDI #28,1519765,5273,15154,A,4934 S KEDZIE AVE,60632,BRIGHTON PARK,58,14,17031630300,1.70316E+14,1155840.365,1871594.263,41.80344571,-87.70398627,"(41.8034457131, -87.7039862718)"
THE MARKET PLACE FOODSTORE,10794,24875,16900,A,521 W DIVERSEY PKWY,60614,LINCOLN PARK,7,43,17031070102,1.70311E+14,1172301.904,1918839.694,41.93274396,-87.64221885,"(41.9327439571, -87.6422188452)"
EDDIE'S FOOD MART,50432,17311,4500,B,1858 W 63RD ST,60636,WEST ENGLEWOOD,67,15,17031670600,1.70317E+14,1164782.287,1862921.113,41.77946116,-87.67143667,"(41.7794611564, -87.6714366715)"
RIVERSIDE DELI,6403,3619,5500,B,1656 W CORTLAND ST,60622,LOGAN SQUARE,22,32,17031832300,1.70318E+14,1164752.576,1912745.994,41.91618612,-87.67013494,"(41.916186115, -87.6701349439)"
FOODSMART,1474028,272175,13800,A,2901 W ARMITAGE AVE,60647,LOGAN SQUARE,22,35,17031222500,1.70312E+14,1156800.356,1913113.112,41.91735855,-87.69934107,"(41.9173585451, -87.6993410687)"
SUPERMARKET & TAQUERIA CARO,2014104,310507,4524,B,4937 W 47TH ST,60638,GARFIELD RIDGE,56,23,17031560300,1.70316E+14,1144086.205,1872974.314,41.80746088,-87.74706057,"(41.8074608778, -87.747060571)"
H & Z GROCERY STORE,3166,2823,10001,A,3638 W WRIGHTWOOD AVE,60647,LOGAN SQUARE,22,35,17031220702,1.70312E+14,1151510.738,1917078.383,41.92834525,-87.7186709,"(41.9283452514, -87.7186708995)"
ALDI FOODS #91,13994,5273,15565,A,3835 W MADISON ST,60624,WEST GARFIELD PARK,26,28,17031260800,1.70313E+14,1150675.921,1899694.81,41.88065941,-87.72219367,"(41.8806594115, -87.7221936689)"
ALDI'S,1817904,5273,11179,A,6520 W FULLERTON AVE,60707,BELMONT CRAGIN,19,36,17031831500,1.70318E+14,1132452.103,1915278.752,41.9237604,-87.78874776,"(41.9237604017, -87.7887477626)"
LORETO GROCERY,76774,22681,4499,B,4600 S FAIRFIELD AVE,60632,BRIGHTON PARK,58,12,17031842800,1.70318E+14,1158768.528,1874004.901,41.81000148,-87.69318135,"(41.8100014783, -87.6931813523)"
AROUND THE CLOCK,15860,6777,3000,B,1605 W HOWARD ST,60626,ROGERS PARK,1,49,17031010202,1.7031E+14,1164071.302,1950305.436,42.01926518,-87.67157207,"(42.0192651821, -87.6715720734)"
COUNTY FAIR FOODS,37096,15344,10001,A,10800 S WESTERN AVE,60643,MORGAN PARK,75,19,17031750300,1.70318E+14,1162271.311,1832938.987,41.69723821,-87.6814748,"(41.6972382088, -87.6814748042)"
LAWNDALE FOOD MARKET,39529,15829,6000,B,3705 W 16TH ST,60623,NORTH LAWNDALE,29,24,17031292200,1.70313E+14,1151911.139,1891750.084,41.85883397,-87.71786719,"(41.8588339683, -87.7178671863)"
"HYDE PARK PRODUCE, LTD",1884100,325993,10000,A,1226 E 53RD ST,60615,HYDE PARK,41,4,17031410700,1.70314E+14,1185427.705,1870419.67,41.7995768,-87.59551292,"(41.7995768022, -87.5955129219)"
ALDI FOODS STORE #90B,13992,5273,15565,A,2828 N CENTRAL AVE,60634,BELMONT CRAGIN,19,31,17031190402,1.70312E+14,1138506.861,1918378.101,41.93215768,-87.7664246,"(41.9321576791, -87.7664245988)"
SAVE-A-LOT  # 858,1272454,216203,12000,A,2858 E 83RD ST,60617,SOUTH CHICAGO,46,7,17031460302,1.70315E+14,1196917.321,1850533.972,41.74473084,-87.55403914,"(41.7447308395, -87.5540391375)"
ADA FOODS,50473,56673,4500,B,1281 W 71ST ST,60636,WEST ENGLEWOOD,67,17,17031671800,1.70317E+14,1168677.679,1857642.999,41.76489418,-87.6573078,"(41.7648941814, -87.6573078048)"
THE NEIGHBORHOOD STORE,47617,16859,4200,B,8313 S RACINE AVE,60620,AUBURN GRESHAM,71,21,17031711000,1.70317E+14,1169811.74,1849596.044,41.74278773,-87.65338425,"(41.7427877337, -87.6533842508)"
AM-PM FOOD MART & CELLULAR,1093813,207399,3500,B,1924 E 87TH ST,60617,AVALON PARK,45,8,17031450300,1.70315E+14,1190653.505,1847714.111,41.73714625,-87.57708099,"(41.7371462539, -87.5770809934)"
"MORELIA SUPERMARKET, INC.",1892862,243702,8000,B,7300 N WESTERN AVE,60645,WEST RIDGE,2,50,17031020200,1.7031E+14,1158974.932,1948414.861,42.01418398,-87.69037835,"(42.0141839829, -87.6903783498)"
DOMINICKS #2890,2042094,5033,55129,A,5201 N SHERIDAN RD,60640,EDGEWATER,77,48,17031030706,1.7031E+14,1168741.552,1934750.447,41.97648167,-87.65483978,"(41.9764816676, -87.6548397772)"
WALMART,2164075,303471,,A,1424 W 47TH ST,60609,NEW CITY,61,3,17031842600,1.70318E+14,1167548.598,1167550.933,41.80876829,-87.66098821,"(41.80876829, -87.66098821)"
ALDI'S #93,1743165,5273,16890,A,7545 S WESTERN AVE,60620,ASHBURN,70,18,17031700100,1.70317E+14,1161731.574,1854361.076,41.75603509,-87.68285832,"(41.756035091, -87.6828583216)"
TREASURE ISLAND FOODS,1311,85291,10001,A,3460 N BROADWAY,60657,LAKE VIEW,6,44,17031062000,1.70311E+14,1171266.718,1923235.211,41.94482827,-87.64589349,"(41.9448282656, -87.6458934884)"
OLIVE MOUNT MART,1337266,205718,3000,B,3536 W 63RD ST,60629,CHICAGO LAWN,66,15,17031660400,1.70317E+14,1153755.809,1862648.962,41.77894012,-87.71186857,"(41.7789401249, -87.7118685723)"
JEWEL FOOD STORE #3407,1394,259,19238,A,5516 N CLARK ST,60640,EDGEWATER,77,40,17031030900,1.7031E+14,1164969.764,1936801.107,41.98218988,-87.66865163,"(41.9821898846, -87.668651628)"
FURTERIA EL SERRANITO,2031979,352794,2500,B,1755 W 38TH ST,60609,MCKINLEY PARK,59,11,17031590700,1.70316E+14,1165040.197,1879467.377,41.82486062,-87.67002302,"(41.8248606245, -87.6700230192)"
PEORIA PACKING LTD,33970,14795,8000,B,1300 W LAKE ST,60607,NEAR WEST SIDE,28,27,17031833000,1.70318E+14,1167882.585,1901616.994,41.88558042,-87.65895691,"(41.88558042, -87.6589569108)"
CARNICERIA JIMENEZ INC,1693,85292,16000,A,4204 W NORTH AVE,60639,HUMBOLDT PARK,23,30,17031230500,1.70312E+14,1148051.225,1910341.243,41.90992525,-87.73155722,"(41.9099252471, -87.7315572163)"
GOLDMORE FOOD,34046,14804,2500,B,1949 W 51ST ST,60609,NEW CITY,61,16,17031611700,1.70316E+14,1164000.681,1870810.755,41.80112781,-87.67408034,"(41.8011278091, -87.6740803441)"
SOLID GOLD,1490386,203033,3300,B,3821 W ROOSEVELT RD,60624,NORTH LAWNDALE,29,24,17031838700,1.70318E+14,1151058.508,1894398.95,41.86611949,-87.72092757,"(41.866119494, -87.720927574)"
Food 4 Less Midwest,1596210,251246,62000,A,7030 S ASHLAND AVE,60636,WEST ENGLEWOOD,67,17,17031671500,1.70317E+14,1166858.452,1857955.501,41.76579077,-87.66396689,"(41.7657907704, -87.6639668865)"
CLARENDON FOOD MART INC,29515,11687,10000,A,4183 N CLARENDON AVE,60613,UPTOWN,3,46,17031031400,1.7031E+14,1170205.441,1928028.605,41.9580048,-87.64965374,"(41.9580048015, -87.6496537356)"
JEWEL FOOD STORE #3043,1144384,259,37641,A,443 E 34TH ST,60616,DOUGLAS,35,4,17031351000,1.70314E+14,1180118.194,1882571.11,41.83304474,-87.61461136,"(41.8330447382, -87.6146113644)"
LA PLAMA,22662,63389,15000,A,4173 S ARCHER AVE,60632,BRIGHTON PARK,58,14,17031580501,1.70316E+14,1157347.056,1876755.826,41.81757931,-87.69832059,"(41.8175793077, -87.6983205863)"
SUPER MAS MARKET,1997806,347422,32000,A,1422 W 47TH ST,60609,NEW CITY,61,3,17031842600,1.70318E+14,1167499.014,1873621.133,41.80876546,-87.66117011,"(41.8087654583, -87.6611701084)"
CARNICERIA EL PORVENIR,1768971,311076,2500,B,150 E KENSINGTON AVE,60628,WEST PULLMAN,53,9,17031530100,1.70315E+14,1179443.181,1828274.079,41.6840632,-87.61874297,"(41.684063198, -87.6187429679)"
JEWEL FOOD STORE #3282,1337,259,24922,A,4729 N CENTRAL AVE,60630,PORTAGE PARK,15,45,17031150300,1.70312E+14,1138185.44,1930999.225,41.96679711,-87.76729948,"(41.966797112, -87.7672994806)"
"THREE ROOSTERS, INC.",1980803,345267,4830,B,12247 S HALSTED ST,60628,WEST PULLMAN,53,34,17031530501,1.70315E+14,1173256.244,1823452.926,41.67097177,-87.64153305,"(41.6709717654, -87.6415330496)"
A & B FOOD MARKET INC,43181,6483,10001,A,5057 W DIVISION ST,60651,AUSTIN,25,37,17031251100,1.70313E+14,1142184.043,1907473.38,41.90216644,-87.75318235,"(41.9021664421, -87.7531823487)"
JEWEL FOOD STORE #3514,1385,259,20285,A,3531 N BROADWAY,60657,LAKE VIEW,6,46,17031061800,1.70311E+14,1171090.408,1923800.986,41.94638465,-87.64652486,"(41.9463846516, -87.6465248633)"
ALDI INC STORE #90,14008,5273,16340,A,9017 S HALSTED ST,60620,AUBURN GRESHAM,71,21,17031711500,1.70317E+14,1172597.811,1845066.53,41.73029727,-87.64330909,"(41.7302972736, -87.6433090924)"
SUPERMERCADO LA VILLA,1800261,313811,9000,B,5020 W FULLERTON AVE,60639,BELMONT CRAGIN,19,31,17031190800,1.70312E+14,1142420.009,1915530.88,41.92427271,-87.75211504,"(41.9242727136, -87.7521150377)"
CERMAK PRODUCE,1574003,286531,14000,A,4401 W ARMITAGE AVE,60639,HERMOSA,20,31,17031831200,1.70318E+14,1146718.753,1912886.209,41.91693444,-87.73638715,"(41.9169344398, -87.7363871475)"
LA MERCED INC,6834,3685,10001,A,4335 W 26TH ST,60623,SOUTH LAWNDALE,30,22,17031301801,1.70313E+14,1147980.981,1886328.481,41.8440328,-87.73243286,"(41.8440327965, -87.7324328647)"
J & A ORIENTAL FOOD MART,30859,8995,10001,A,5755 W FULLERTON AVE,60639,BELMONT CRAGIN,19,37,17031191302,1.70312E+14,1137381.667,1915324.774,41.92379935,-87.77063324,"(41.9237993545, -87.7706332364)"
WEST HAVEN MARKET & GRILL,17558,7111,3200,B,2132 W WASHINGTON BLVD,60612,NEAR WEST SIDE,28,2,17031837800,1.70318E+14,1162032.117,1900702.263,41.88319447,-87.68046649,"(41.8831944724, -87.6804664902)"
SAHAR INTERNATIONAL SUPERMARKET,2079006,263556,7900,B,4851 N KEDZIE AVE,60625,ALBANY PARK,14,33,17031140100,1.70311E+14,1154202.458,1932262.279,41.96995754,-87.70837288,"(41.9699575396, -87.7083728782)"
"PARK PACKING OF CHICAGO, INC.",2008956,340517,3500,B,1544 W 41ST ST,60609,NEW CITY,61,11,17031842600,1.70318E+14,1166633.854,1877402.126,41.81915944,-87.66423536,"(41.8191594443, -87.6642353554)"
CERMAK PRODUCE #5 LTD,1649774,298958,10000,A,3435 S ARCHER AVE,60608,MCKINLEY PARK,59,11,17031840300,1.70318E+14,1163434.491,1881819.837,41.8313499,-87.67584785,"(41.8313499001, -87.6758478479)"
NATIONAL FRUIT STOP,23627,9531,3000,B,3523 W LAWRENCE AVE,60625,ALBANY PARK,14,33,17031140701,1.70311E+14,1151894.187,1931625.343,41.96825564,-87.71687738,"(41.9682556374, -87.7168773813)"
DOMINICK'S #160/1698,41689,5033,72000,A,1763 W HOWARD ST,60626,ROGERS PARK,1,49,17031010202,1.7031E+14,1163123.858,1950306.646,42.01928855,-87.67505851,"(42.0192885501, -87.6750585094)"
"CARNICERIA LA MEJOR PRODUCE, INC.",1800292,313836,4500,B,2915 N MILWAUKEE AVE,60618,AVONDALE,21,35,17031210602,1.70312E+14,1152283.917,1919259.219,41.9343144,-87.715772,"(41.9343143994, -87.7157719991)"
WHOLE FOODS MARKET,76395,86298,30591,A,30 W HURON ST,60610,NEAR NORTH SIDE,8,42,17031081600,1.70311E+14,1175903.129,1905102.71,41.89496867,-87.62939918,"(41.8949686732, -87.6293991787)"
BARI,1245246,246600,2500,B,1120 W GRAND AVE,60622,WEST TOWN,24,27,17031243500,1.70312E+14,1168791.299,1903675.742,41.89121012,-87.65556024,"(41.8912101212, -87.6555602414)"
JEWEL FOOD STORE #3454,1325,259,25490,A,4250 N LINCOLN AVE,60618,NORTH CENTER,5,47,17031050200,1.70311E+14,1161297.751,1928358.515,41.95910043,-87.68239224,"(41.959100433, -87.6823922417)"
JOLANTA'S INTERNATIONAL DELI,26376,10856,10001,A,5914 W HIGGINS AVE,60630,JEFFERSON PARK,11,45,17031110400,1.70311E+14,1135703.958,1933167.432,41.9727915,-87.77637186,"(41.9727914969, -87.7763718583)"
EL MILAGRO,43513,2718,5500,B,3048 W 26TH ST,60623,SOUTH LAWNDALE,30,12,17031300900,1.70313E+14,1156243.443,1886626.271,41.84468733,-87.70210294,"(41.8446873274, -87.702102936)"
HARVESTIME FOODS,43697,16317,8750,B,2632 W LAWRENCE AVE,60625,LINCOLN SQUARE,4,40,17031040201,1.7031E+14,1157798.346,1931819.659,41.96867023,-87.69516275,"(41.9686702259, -87.6951627475)"
CHICAGO GROCERS,1332221,258200,2500,B,2122 W DEVON AVE,60659,WEST RIDGE,2,50,17031020500,1.7031E+14,1160870.391,1942511.562,41.99794589,-87.68356871,"(41.9979458853, -87.683568705)"
NOOR MEAT,61680,19506,3000,B,2505 W DEVON AVE,60659,WEST RIDGE,2,50,17031020802,1.7031E+14,1158430.461,1942357.58,41.99757381,-87.6925486,"(41.9975738059, -87.6925485988)"
TRATTORIA ISABELLA,1842843,320408,3365,B,217 N JEFFERSON ST,60661,NEAR WEST SIDE,28,42,17031280100,1.70313E+14,1172322.541,1901912.232,41.88629367,-87.64264392,"(41.8862936679, -87.6426439206)"
Save-A-Lot #886,2079232,216203,13000,A,148 W 79TH ST,60620,GREATER GRAND CROSSING,69,17,17031691200,1.70317E+14,1176452.442,1852636.222,41.75098379,-87.62896145,"(41.7509837901, -87.6289614545)"
L'APPETITO,42672,16220,2900,B,875 N MICHIGAN AVE,60611,NEAR NORTH SIDE,8,42,17031081300,1.70311E+14,1177367.936,1906565.138,41.89894854,-87.62397499,"(41.8989485417, -87.6239749877)"
"TONY'S FINER FOODS ENTERPRISES, INC.",1717867,305203,21000,A,3607 W FULLERTON AVE,60647,LOGAN SQUARE,22,35,17031220902,1.70312E+14,1151897.109,1915676.258,41.92449009,-87.71728813,"(41.924490094, -87.717288131)"
JEWEL FOOD STORE #3139,1356,259,22295,A,3940 E 106TH ST,60617,EAST SIDE,52,10,17031520400,1.70315E+14,1204247.134,1835323.184,41.7028061,-87.52770401,"(41.7028060951, -87.5277040116)"
SAVE-A-LOT  #859,1272455,216203,12000,A,420 S PULASKI RD,60624,WEST GARFIELD PARK,26,24,17031260700,1.70313E+14,1149764.943,1897457.346,41.87453731,-87.7255969,"(41.8745373122, -87.7255969017)"
MICELI'S DELI & FOOD MART,44924,16493,4000,B,2448 S OAKLEY AVE,60608,LOWER WEST SIDE,31,25,17031841300,1.70318E+14,1161387.699,1887514.882,41.84702046,-87.68319955,"(41.847020464, -87.6831995522)"
DOMINICK'S # 130/1130,41657,5033,10001,A,2101 E 71ST ST,60649,SOUTH SHORE,43,5,17031430600,1.70314E+14,1191459.659,1858232.45,41.76599,-87.57378734,"(41.7659900011, -87.5737873367)"
MA'S & PA'S GROCERY SNACK SHOP,7302,3806,4500,B,804 S CALIFORNIA AVE,60612,EAST GARFIELD PARK,27,2,17031271800,1.70313E+14,1157790.043,1896181.895,41.87087764,-87.69616688,"(41.8708776439, -87.6961668842)"
JEWEL FOOD STORE #3181,1368,259,30745,A,87 W 87TH ST,60620,CHATHAM,44,21,17031842400,1.70318E+14,1177054.474,1847233.724,41.73614513,-87.62691784,"(41.7361451282, -87.626917844)"
4700 PETE'S FRESH MARKET,1243125,245519,45000,A,4700 S KEDZIE AVE,60632,BRIGHTON PARK,58,14,17031842800,1.70318E+14,1155791.949,1873270.778,41.80804727,-87.70411882,"(41.8080472717, -87.7041188223)"
LA GUERRERENSE,67114,43885,3000,B,4149 W ARMITAGE AVE,60639,HERMOSA,20,30,17031831200,1.70318E+14,1148187.714,1912920.373,41.917,-87.73098926,"(41.9170000028, -87.7309892645)"
LOUIS' GROCERIES,2153429,372246,,A,7604 S COTTAGE GROVE AVE,60619,GREATER GRAND CROSSING,69,6,17031691400,1.70317E+14,1182841.944,1854717.938,41.75655031,-87.60548285,"(41.75655031, -87.60548285)"
"SZYMANSKI BROS, INC",18082,86677,3000,B,6016 W IRVING RD,60634,PORTAGE PARK,15,38,17031150502,1.70312E+14,1135438.855,1926007.887,41.95314974,-87.77751749,"(41.9531497374, -87.7775174877)"
SUPERMERCADO GUADALAJARA #2,3991,23651,6000,B,2300 S KEDZIE AVE,60623,SOUTH LAWNDALE,30,24,17031300800,1.70313E+14,1155346.701,1888503.803,41.84985753,-87.70534348,"(41.8498575327, -87.7053434771)"
JEWEL FOOD STORE #3455,1380,259,23660,A,4355 N SHERIDAN RD,60613,UPTOWN,3,46,17031032100,1.7031E+14,1168852.207,1929254.341,41.96139778,-87.65459297,"(41.9613977799, -87.6545929748)"
CARNICERIA DEL RIO,1801493,314238,3000,B,2714 W CERMAK RD,60608,SOUTH LAWNDALE,30,28,17031840700,1.70318E+14,1158513.93,1889320.59,41.85203474,-87.69369691,"(41.8520347381, -87.6936969081)"
FIESTA SUPERMARCADO,1196305,221943,14500,A,3307 W 63RD ST,60629,CHICAGO LAWN,66,15,17031660500,1.70317E+14,1155383.105,1862616.485,41.77881858,-87.70590358,"(41.7788185771, -87.7059035755)"
ALDI INC #83,13990,5273,16300,A,8333 S CICERO AVE,60652,ASHBURN,70,18,17031700302,1.70317E+14,1145926.588,1848735.591,41.74091107,-87.74092286,"(41.7409110654, -87.7409228594)"
WALLY'S INTERNATIONAL MARKET,32288,14504,10001,A,3256 N MILWAUKEE AVE,60618,AVONDALE,21,31,17031831100,1.70318E+14,1149524.32,1921376.251,41.94017781,-87.72585843,"(41.9401778125, -87.7258584348)"
ZIAD CERTIFIED FOODS,9046,4213,2500,B,513 E 47TH ST,60653,GRAND BOULEVARD,38,3,17031381200,1.70314E+14,1180538.329,1873929.875,41.80932287,-87.61333552,"(41.8093228701, -87.6133355212)"
SUPERMERCADO EL CUBANO INC,57265,6678,2750,B,4939 S ASHLAND AVE,60609,NEW CITY,61,20,17031611200,1.70316E+14,1166552.07,1871797.81,41.80378232,-87.66469533,"(41.803782323, -87.6646953279)"
FAIRPLAY FINER FOODS INC,10949,86481,10001,A,4640 S HALSTED ST,60609,NEW CITY,61,11,17031842600,1.70318E+14,1171712.005,1873969.432,41.80962977,-87.64570757,"(41.809629768, -87.6457075651)"
RITE PRICE FOOD,1198136,222688,3600,B,5606 W DIVISION ST,60651,AUSTIN,25,29,17031250600,1.70313E+14,1138707.848,1907480.831,41.90225069,-87.76595092,"(41.9022506897, -87.7659509238)"
KAMDAR PLAZA INC,4429,3241,5500,B,2646 W DEVON AVE,60659,WEST RIDGE,2,50,17031020602,1.7031E+14,1157317.615,1942403.248,41.9977219,-87.6966411,"(41.9977219015, -87.6966411029)"
J & J EUROPEAN DELI,21936,63361,3000,B,5960 W LAWRENCE AVE,60630,PORTAGE PARK,15,45,17031150401,1.70312E+14,1135539.547,1931334.539,41.9677648,-87.7770202,"(41.9677648001, -87.7770202043)"
WORLD FRESH MARKET,1492163,21515,5500,B,2434 W DEVON AVE,60659,WEST RIDGE,2,50,17031020602,1.7031E+14,1158782.273,1942449.179,41.99781793,-87.69125189,"(41.997817926, -87.6912518856)"
CITY GROCERY,1979483,344633,5000,B,405 N WABASH AVE,60611,NEAR NORTH SIDE,8,42,17031081500,1.70311E+14,1176706.459,1903103.76,41.88946533,-87.62650927,"(41.8894653288, -87.6265092736)"
DANNY'S FRESH MARKET,1888080,326926,14405,A,2140 N WESTERN AVE,60647,LOGAN SQUARE,22,1,17031221500,1.70312E+14,1159966.294,1914498.839,41.92109627,-87.68767101,"(41.921096268, -87.6876710129)"
PETE'S MARKET,36823,15303,10001,A,5724 S KEDZIE AVE,60629,GAGE PARK,63,14,17031630900,1.70316E+14,1155989.471,1866372.165,41.78911255,-87.70357973,"(41.789112548, -87.7035797266)"
"TONY'S FINER FOODS ENTERPRISES, INC.",1717568,305203,35000,A,2500 N CENTRAL AVE,60639,BELMONT CRAGIN,19,30,17031190602,1.70312E+14,1138581.761,1916095.596,41.92589288,-87.76620483,"(41.9258928802, -87.7662048258)"
HAPPY FOODS,1618656,294177,11500,A,6415 N CENTRAL AVE,60646,FOREST GLEN,12,45,17031120200,1.70311E+14,1139158.157,1942325.637,41.99786001,-87.7634458,"(41.9978600139, -87.7634457986)"
DOMINICK'S FINER FOODS - STORE # 2775,1820382,5033,54963,A,2021 W CHICAGO AVE,60622,WEST TOWN,24,1,17031243000,1.70312E+14,1162687.544,1905295.59,41.89578523,-87.67793089,"(41.8957852296, -87.6779308926)"
ALDI'S #47,1619769,5273,16370,A,1508 W 47TH ST,60609,NEW CITY,61,3,17031842600,1.70318E+14,1167024.297,1873608.653,41.80874139,-87.66291163,"(41.8087413884, -87.6629116285)"
AWAMI BAZAAR & ZABIHA MEAT,68226,20954,2500,B,2340 W DEVON AVE,60659,WEST RIDGE,2,50,17031020500,1.7031E+14,1159376.822,1942466.678,41.99785369,-87.68906427,"(41.9978536894, -87.6890642657)"
MAKOLA AFRICAN SUPERMARKET #2,2008279,279945,3500,B,4501 N SHERIDAN RD,60640,UPTOWN,3,46,17031031502,1.7031E+14,1168837.759,1930075.097,41.96365028,-87.65462219,"(41.9636502775, -87.6546221904)"
ALDI #30,1547427,5273,15154,A,3030 S KEDZIE AVE,60623,SOUTH LAWNDALE,30,12,17031840800,1.70318E+14,1155473.098,1884225.253,41.83811415,-87.70499446,"(41.8381141517, -87.7049944648)"
CENTRAL PARK FOODS INC,13813,6373,8000,B,3604 W GRAND AVE,60651,HUMBOLDT PARK,23,26,17031231200,1.70312E+14,1152082.863,1907654.382,41.90247367,-87.71681747,"(41.9024736738, -87.7168174653)"
NEW LA ESTRELLA FOODS INC.,2003267,348383,5800,B,3003 W 63RD ST,60629,CHICAGO LAWN,66,15,17031660600,1.70317E+14,1157424.768,1862672.642,41.77893156,-87.69841709,"(41.7789315569, -87.6984170935)"
"KRAKUS DELI,  INC",1222467,229704,3500,B,5155 W ADDISON ST,60641,PORTAGE PARK,15,38,17031151001,1.70312E+14,1141134.009,1923401.79,41.9458951,-87.75664585,"(41.9458951009, -87.7566458523)"
MLB FOOD,1884977,326392,2500,B,613 E 67TH ST,60637,WOODLAWN,42,20,17031421200,1.70314E+14,1181543.403,1860685.481,41.7729559,-87.61005781,"(41.7729559039, -87.6100578109)"
ALDI'S FOODS BELMONT,1975886,5273,18600,A,3320 W BELMONT AVE,60618,AVONDALE,21,35,17031831100,1.70318E+14,1153595.928,1921123.899,41.93940519,-87.71090059,"(41.9394051879, -87.7109005918)"
BERBATE FRUIT MARKET,1646036,296646,2500,B,3956 N NARRAGANSETT AVE,60634,DUNNING,17,38,17031170300,1.70312E+14,1132942.485,1925839.44,41.95273156,-87.78669844,"(41.9527315616, -87.7866984426)"
Hegewisch Fruit Market Inc.,2020869,350864,7800,B,13209 S BALTIMORE AVE,60633,HEGEWISCH,55,10,17031550100,1.70316E+14,1199136.36,1817923.262,41.65518859,-87.54699942,"(41.6551885903, -87.5469994185)"
FRESH BUY FOODS INC,23640,9535,26000,A,6319 S VERNON AVE,60637,WOODLAWN,42,20,17031420700,1.70314E+14,1180379.164,1863120.509,41.77966465,-87.61425094,"(41.7796646515, -87.6142509361)"
GAYTAN GROCERY STORE,85044,81586,3500,B,2802 S KOLIN AVE,60623,SOUTH LAWNDALE,30,22,17031301801,1.70313E+14,1147806.762,1884970.125,41.84030863,-87.73310706,"(41.8403086304, -87.733107059)"
TAI WAH GROCERY,28038,63654,3200,B,2226 S WENTWORTH AVE,60616,ARMOUR SQUARE,34,25,17031841100,1.70318E+14,1175283.353,1889485.208,41.8521272,-87.632144,"(41.8521271977, -87.6321439957)"
ALDI,1922075,5273,16615,A,6621 S COTTAGE GROVE AVE,60637,WOODLAWN,42,5,17031420800,1.70314E+14,1182742.139,1861187.55,41.77430588,-87.60564803,"(41.7743058812, -87.6056480253)"
TREASURE ISLAND FOODS,1319,85291,10001,A,680 N LAKE SHORE DR,60611,NEAR NORTH SIDE,8,42,17031081401,1.70311E+14,1179588.036,1905071.171,41.89479837,-87.61586665,"(41.8947983703, -87.6158666457)"
DISCOUNT MEAT COMPANY,13820,6377,4160,B,339 W 79TH ST,60620,CHATHAM,44,17,17031842400,1.70318E+14,1175247.368,1852518.394,41.75068744,-87.63338093,"(41.7506874405, -87.6333809292)"
ORIENTAL ASIA MARKET INC.,1903198,330517,7500,B,4932 N SHERIDAN RD,60640,UPTOWN,3,46,17031031200,1.7031E+14,1168693.63,1933319.419,41.97255593,-87.65505767,"(41.9725559281, -87.6550576698)"
VIET HOA PLAZA,10540,85532,6174,B,1051 W ARGYLE ST,60640,UPTOWN,3,48,17031031200,1.7031E+14,1168165.756,1933540.492,41.97317401,-87.65699233,"(41.9731740098, -87.6569923349)"
POLONIA FOOD MART,6455,3630,10001,A,1956 W ARMITAGE AVE,60622,LOGAN SQUARE,22,32,17031832300,1.70318E+14,1162748.602,1913344.489,41.91787072,-87.67748062,"(41.9178707156, -87.6774806152)"
ALDI INC #10,14002,5273,15540,A,4501 S PULASKI RD,60632,ARCHER HEIGHTS,57,14,17031570100,1.70316E+14,1150478.906,1874473.041,41.81145154,-87.72357465,"(41.8114515422, -87.7235746544)"
ONE STOP,2032029,352811,2500,B,4401 W MADISON ST,60624,WEST GARFIELD PARK,26,28,17031260500,1.70313E+14,1147026.592,1899610.816,41.88049945,-87.73559596,"(41.8804994508, -87.735595961)"
EL BARRIO GROCERY,42681,16221,10001,A,3938 W NORTH AVE,60647,HUMBOLDT PARK,23,30,17031230400,1.70312E+14,1149716.52,1910383.157,41.91000804,-87.72543846,"(41.9100080401, -87.7254384633)"
AARAY GROCERY,1900,62541,10001,A,2601 N HALSTED ST,60614,LINCOLN PARK,7,43,17031070200,1.70311E+14,1170536.071,1917537.596,41.92920982,-87.64874627,"(41.929209817, -87.648746265)"
BROADWAY SUPERMARKET,50737,17352,15000,A,4879 N BROADWAY,60640,UPTOWN,3,48,17031031200,1.7031E+14,1167467.569,1932805.104,41.97117118,-87.65958098,"(41.9711711808, -87.659580975)"
FOODSMART,46295,16644,3500,B,3415 W DIVERSEY AVE,60647,LOGAN SQUARE,22,35,17031220602,1.70312E+14,1153071.521,1918367.838,41.93185278,-87.71290125,"(41.9318527752, -87.7129012497)"
MORGAN FOOD CORP LLC,1270949,250439,3500,B,6600 S MORGAN ST,60621,ENGLEWOOD,68,17,17031681000,1.70317E+14,1170741.172,1861024.599,41.77412895,-87.649646,"(41.7741289538, -87.6496459973)"
THE PRODUCE CENTER,44723,16464,12000,A,5820 N MILWAUKEE AVE,60646,NORWOOD PARK,10,45,17031100100,1.70311E+14,1135086.809,1938439.547,41.98726964,-87.7785157,"(41.9872696368, -87.7785157048)"
DOMINICKS #2889,2042084,5033,48735,A,5233 N LINCOLN AVE,60625,LINCOLN SQUARE,4,40,17031040202,1.7031E+14,1158559.966,1934822.693,41.9768951,-87.69227967,"(41.9768950984, -87.6922796678)"
ALDI INC.#94,14010,5273,10001,A,6025 S WESTERN AVE,60636,CHICAGO LAWN,66,16,17031835000,1.70318E+14,1161445.945,1864537.237,41.78396584,-87.68362338,"(41.7839658423, -87.6836233778)"
TREASURE ISLAND FOODS,1315,85291,10001,A,2121 N CLYBOURN AVE,60614,LINCOLN PARK,7,43,17031832500,1.70318E+14,1167009.004,1914116.864,41.91989968,-87.66180554,"(41.919899684, -87.6618055364)"
JEWEL FOOD STORE #3296,1392,259,29421,A,7342 W FOSTER AVE,60656,NORWOOD PARK,10,41,17031100500,1.70311E+14,1126189.317,1933745.777,41.97454295,-87.81134688,"(41.9745429477, -87.8113468842)"
THREE R FOOD,1943396,339315,3000,B,2712 W MONTROSE AVE,60618,ALBANY PARK,14,33,17031140800,1.70311E+14,1157408.394,1929156.724,41.96137095,-87.69666935,"(41.961370945, -87.6966693474)"
CERMAK PRODUCE,1476657,273150,15000,A,1711 W CERMAK RD,60608,LOWER WEST SIDE,31,25,17031843200,1.70318E+14,1165248.867,1889420.241,41.85216786,-87.66897504,"(41.8521678636, -87.6689750407)"
CARNICERIA LA AZTECA,1354069,262231,2500,B,7067 N CLARK ST,60626,ROGERS PARK,1,49,17031010702,1.7031E+14,1163376.521,1947274.502,42.01096295,-87.67421466,"(42.0109629527, -87.6742146577)"
WHOLE FOODS MARKET,1678048,86298,19740,A,3640 N HALSTED ST,60613,LAKE VIEW,6,44,17031061000,1.70311E+14,1170228.556,1924572.202,41.9485198,-87.64967012,"(41.948519803, -87.6496701249)"
HONG KONG MARKET,1892499,64229,46300,A,520 W 24TH PL,60616,ARMOUR SQUARE,34,25,17031841100,1.70318E+14,1172894.139,1888048.211,41.84823717,-87.64095553,"(41.8482371659, -87.6409555275)"
JEWEL FOOD STORE #3030,1000572,259,31951,A,7530 S STONY ISLAND AVE,60649,SOUTH SHORE,43,5,17031834200,1.70318E+14,1188080.652,1855220.319,41.75780566,-87.58626826,"(41.7578056585, -87.586268258)"
CERMAK PRODUCE NO.4,69608,21223,17000,A,2701 W NORTH AVE,60647,WEST TOWN,24,26,17031241000,1.70312E+14,1158110.217,1910489.415,41.91013224,-87.69460039,"(41.9101322404, -87.6946003939)"
MUNCHIES ON LARRABEE,2073925,210118,2500,B,1012 N LARRABEE ST,60610,NEAR NORTH SIDE,8,27,17031842200,1.70318E+14,1172113.342,1907214.704,41.90084859,-87.64325554,"(41.9008485875, -87.6432555365)"
ALDI INC STORE #95,14011,5273,37000,A,2333 E 95TH ST,60617,SOUTH DEERING,51,7,17031510300,1.70315E+14,1193541.803,1842389.989,41.72246624,-87.56667305,"(41.722466242, -87.5666730521)"
MI MEXICO GROCERY,1494240,277614,2600,B,2601 W 59TH ST,60629,CHICAGO LAWN,66,16,17031835000,1.70318E+14,1160033.934,1865405.029,41.78637634,-87.68877651,"(41.7863763432, -87.688776514)"
ALDI FOODS STORE #30,14000,5273,14860,A,4030 W WRIGHTWOOD AVE,60639,LOGAN SQUARE,22,31,17031220702,1.70312E+14,1148929.317,1917009.95,41.92820785,-87.72815856,"(41.9282078544, -87.728158558)"
EUROPA GALLERIA INC,1299537,253902,6500,B,340 W SUPERIOR ST,60610,NEAR NORTH SIDE,8,42,17031081800,1.70311E+14,1173771.573,1905338.265,41.89566277,-87.63722072,"(41.8956627719, -87.637220715)"
SAVE-A-LOT   #856,1222884,216203,12000,A,5555 W NORTH AVE,60639,AUSTIN,25,37,17031250700,1.70313E+14,1138898.646,1910041.706,41.90927457,-87.76518779,"(41.9092745667, -87.765187785)"
ANAR INC,31219,14297,10001,A,935 E 79TH ST,60619,CHATHAM,44,8,17031440101,1.70314E+14,1183972.091,1852784.314,41.75121793,-87.60140141,"(41.7512179339, -87.6014014102)"
CLYBOURN MARKET,40522,15968,3500,B,2807 N CLYBOURN AVE,60618,NORTH CENTER,5,1,17031051400,1.70311E+14,1162477.18,1918702.518,41.93257918,-87.67832746,"(41.9325791837, -87.678327456)"
SERRELLI'S FOODS,6981,62794,4000,B,6454 W NORTH AVE,60707,AUSTIN,25,36,17031250500,1.70313E+14,1132926.401,1909986.632,41.9092299,-87.78712882,"(41.909229895, -87.7871288207)"
FOOD 4 LESS,1928152,251246,63506,A,112 W 87TH ST,60620,CHATHAM,44,21,17031842400,1.70318E+14,1176892.365,1847318.001,41.73638005,-87.62750922,"(41.7363800456, -87.627509219)"
DOMINICK'S #153/2153,41678,5033,68000,A,424 W DIVISION ST,60610,NEAR NORTH SIDE,8,27,17031080400,1.70311E+14,1173143.885,1908329.181,41.90388396,-87.6394372,"(41.9038839611, -87.6394372016)"
SUPER JIM'S,37540,33441,4500,B,5147 W DIVISION ST,60651,AUSTIN,25,37,17031251100,1.70313E+14,1141624.102,1907462.596,41.90214722,-87.75523939,"(41.9021472222, -87.7552393884)"
ALDI FOODS -STORE #04,13988,5273,12500,A,800 N KEDZIE AVE,60651,HUMBOLDT PARK,23,27,17031836600,1.70318E+14,1154853.936,1905175.142,41.89561531,-87.70670533,"(41.8956153135, -87.7067053251)"
BUSY BEE SUPERMARKET,1974525,343785,2500,B,5659 S ASHLAND AVE,60636,WEST ENGLEWOOD,67,16,17031670200,1.70317E+14,1166685.292,1866951.277,41.79048002,-87.66434507,"(41.7904800194, -87.6643450657)"
LUCIANO'S GROCERY-18TH ST,1380524,265429,6000,B,1714 W 18TH ST,60608,LOWER WEST SIDE,31,25,17031310800,1.70313E+14,1165111.723,1891492.252,41.85785657,-87.6694196,"(41.8578565675, -87.6694195956)"
CRESPO'S FOOD MART,40132,15902,2800,B,4353 W MADISON ST,60624,WEST GARFIELD PARK,26,28,17031260600,1.70313E+14,1147155.416,1899613.734,41.880505,-87.73512285,"(41.880504995, -87.7351228503)"
ARMITAGE PRODUCE INC,1771323,4469,14340,A,2007 N KIMBALL AVE,60647,LOGAN SQUARE,22,35,17031221100,1.70312E+14,1153421.139,1913162.672,41.91756242,-87.71175511,"(41.9175624189, -87.7117551087)"
RODRIGUEZ FRUITS & VEGETABLE,18231,7487,2626,B,2458 S ST LOUIS AVE,60623,SOUTH LAWNDALE,30,22,17031300700,1.70313E+14,1153392.177,1887204.053,41.84632986,-87.7125514,"(41.8463298609, -87.7125513997)"
JEWEL FOOD STORE #3368,1226337,259,31600,A,550 N STATE ST,60610,NEAR NORTH SIDE,8,42,17031081600,1.70311E+14,1176227.753,1904177.074,41.89242137,-87.62823487,"(41.8924213661, -87.6282348711)"
JEWEL FOOD STORE #3721,1225534,259,49513,A,6107 S ARCHER AVE,60638,GARFIELD RIDGE,56,23,17031560800,1.70316E+14,1137719.73,1868155.8,41.79435485,-87.77052715,"(41.7943548532, -87.7705271521)"
SUPERMERCADO LA CHIQUTIA # 4,49303,89325,10001,A,2623 S PULASKI RD,60623,SOUTH LAWNDALE,30,22,17031301701,1.70313E+14,1150175.895,1886162.497,41.84353489,-87.72438218,"(41.8435348913, -87.7243821794)"
INTERNATIONAL SUPERMARKET INC,16712,6917,7500,B,4556 S ASHLAND AVE,60609,NEW CITY,61,3,17031610400,1.70316E+14,1166403.294,1874268.618,41.81056568,-87.66517052,"(41.8105656774, -87.6651705169)"
WEST LAWN FOODS,1591726,289367,17000,A,5838 S PULASKI RD,60629,WEST ELSDON,62,13,17031620300,1.70316E+14,1150664.381,1865421.229,41.78660841,-87.72313003,"(41.7866084095, -87.7231300289)"
"LA NUEVA IMAGEN GROCERY, INC.",1804216,315282,3000,B,2459 S MILLARD AVE,60623,SOUTH LAWNDALE,30,22,17031300600,1.70313E+14,1152475.401,1887185.507,41.8462971,-87.71591643,"(41.8462971046, -87.7159164295)"
S & T PROVISION CO INC,12173,6018,10001,A,3804 W 111TH ST,60655,MOUNT GREENWOOD,74,19,17031740300,1.70317E+14,1152946.913,1830759.52,41.69144591,-87.7156731,"(41.6914459103, -87.7156731039)"
PARKSHORE MARKET LTD,26464,10858,2860,B,195 N HARBOR DR,60601,LOOP,32,42,17031320100,1.70313E+14,1179687.021,1901930.254,41.88617728,-87.6155996,"(41.8861772806, -87.6155996011)"
CARNICERIA GUANAJUATO,2069477,358374,9325,B,5250 W FULLERTON AVE,60639,BELMONT CRAGIN,19,31,17031190702,1.70312E+14,1140756.18,1915489.208,41.92418915,-87.75822974,"(41.9241891458, -87.7582297412)"
LOS CUATRO HERMANOS GROCERY,7790,62837,10001,A,1858 S ALLPORT ST,60608,LOWER WEST SIDE,31,25,17031310600,1.70313E+14,1168296.854,1890914.221,41.85620222,-87.65774497,"(41.8562022212, -87.6577449724)"
EDDY'S FOOD MART,1879269,324962,4000,B,7575 N ROGERS AVE,60626,ROGERS PARK,1,49,17031010300,1.7031E+14,1164934.279,1950275.478,42.01916463,-87.66839729,"(42.019164625, -87.668397288)"
MAYFAIR MARKET PLACE,1948869,340165,12000,A,4728 N PULASKI RD,60630,ALBANY PARK,14,39,140500,1.70311E+14,1148831.952,1931243.11,41.96726667,-87.72814705,"(41.9672666701, -87.7281470478)"
The Unit,2021618,351168,3500,B,2523 E 75TH ST,60649,SOUTH SHORE,43,7,17031431302,1.70314E+14,1194459.429,1855683.514,41.75892232,-87.56287604,"(41.7589223174, -87.5628760391)"
MOROLEON FOODS #2 INC.,1801622,314329,3025,B,4257 S ROCKWELL ST,60632,BRIGHTON PARK,58,12,17031580700,1.70316E+14,1159787.497,1876115.055,41.81577112,-87.6893859,"(41.8157711158, -87.6893858973)"
SUPERMERCADO GUERRERO,2042000,354339,3800,B,3100 W CERMAK RD,60623,SOUTH LAWNDALE,30,24,17031841700,1.70318E+14,1156013.488,1889256.046,41.85190837,-87.70287599,"(41.8519083675, -87.702875989)"
STOP & GO FOOD MART,26776,11123,3250,B,1622 W MONTEREY AVE,60643,MORGAN PARK,75,34,17031750600,1.70318E+14,1167414.121,1830185.843,41.68957477,-87.66272315,"(41.6895747692, -87.6627231456)"
ALDI INC #92,13996,5273,19410,A,620 W 63RD ST,60621,ENGLEWOOD,68,16,17031680900,1.70317E+14,1173102.904,1863153.862,41.77992005,-87.64092551,"(41.7799200473, -87.6409255107)"
FIRST CHOICE MARKET,1969290,342952,10000,A,3019 E 91ST ST,60617,SOUTH CHICAGO,46,10,17031461000,1.70315E+14,1197964.097,1845167.181,41.72997787,-87.55038259,"(41.7299778712, -87.5503825944)"
KORDIAN'S MARKET,28114,11448,4610,B,6332 W HIGGINS AVE,60630,JEFFERSON PARK,11,45,17031110300,1.70311E+14,1132925.716,1934312.961,41.97598405,-87.78656131,"(41.9759840467, -87.7865613104)"
"DOMINICK'S Finer Foods, Inc. #1695",41682,5033,26819,A,959 W FULLERTON AVE,60614,LINCOLN PARK,7,43,17031071100,1.70311E+14,1169257.276,1916091.025,41.92526828,-87.65348756,"(41.9252682757, -87.6534875641)"
ALDI INC #06,13978,5273,14000,A,5001 N PULASKI RD,60630,ALBANY PARK,14,39,17031140302,1.70311E+14,1148863.367,1932961.419,41.97198122,-87.7279869,"(41.9719812207, -87.7279868979)"
SHOP WISE FOOD,1334440,259101,6000,B,316 W 103RD ST,60628,ROSELAND,49,9,17031490700,1.70315E+14,1175916.552,1836666.923,41.70717395,-87.63140242,"(41.7071739515, -87.6314024214)"
"H & A FOOD MARKET, INC.",1379268,217567,2500,B,1007 W 63RD ST,60621,ENGLEWOOD,68,16,17031681000,1.70317E+14,1170635.734,1863004.589,41.77956458,-87.64997484,"(41.7795645849, -87.6499748357)"
GEMELOS FOOD/ CHECK CASHING SERVICES,1045757,203580,6600,B,4300 S MOZART ST,60632,BRIGHTON PARK,58,14,17031580502,1.70316E+14,1158040.549,1875978.451,41.815432,-87.69579779,"(41.815432001, -87.69579779)"
ALDI #32,1975885,5273,16924,A,1840 N CLYBOURN AVE,60614,LINCOLN PARK,7,32,17031832600,1.70318E+14,1168978.244,1912136.792,41.91442371,-87.65462784,"(41.9144237141, -87.654627843)"
SUPERIOR NUT & CANDY  CO.I INC.,1122087,26728,10005,A,1111 W 40TH ST,60609,NEW CITY,61,11,17031842600,1.70318E+14,1169479.083,1878079.696,41.82095749,-87.65377832,"(41.820957494, -87.6537783218)"
LA PERLA TAPATIA BAKERY,1698,85292,3000,B,4214 W NORTH AVE,60639,HUMBOLDT PARK,23,30,17031230500,1.70312E+14,1147938.538,1910338.451,41.90991975,-87.73197126,"(41.909919754, -87.731971257)"
"RIO GRANDE FRUIT MARKET, INC.",1042285,201574,3750,B,3501 W NORTH AVE,60647,HUMBOLDT PARK,23,26,17031230800,1.70312E+14,1152725.357,1910369.204,41.90991071,-87.71438551,"(41.9099107051, -87.7143855102)"
MIARA'S CONT'L PASTRY DELI INC,10400,4623,5000,B,7051 W ADDISON ST,60634,DUNNING,17,36,17031171000,1.70312E+14,1128545.078,1923079.509,41.94523382,-87.80292664,"(41.9452338231, -87.8029266385)"
J AND P FINER FOODS,1567,299,4500,B,3501 W MONTROSE AVE,60618,IRVING PARK,16,33,17031160501,1.70312E+14,1152248.065,1928979.616,41.96098859,-87.71564632,"(41.9609885935, -87.7156463163)"
NEIL'S FOOD,1998505,221849,3500,B,7749 S HALSTED ST,60620,AUBURN GRESHAM,71,17,17031710100,1.70317E+14,1172356.949,1853275.989,41.75283042,-87.64395052,"(41.7528304183, -87.6439505248)"
CHICAGO FOOD CORP,1169745,11429,10000,A,5800 N PULASKI RD,60646,NORTH PARK,13,39,17031130200,1.70311E+14,1148643.522,1938042.388,41.98592799,-87.72866342,"(41.9859279924, -87.7286634185)"
JEWEL FOOD STORE #3443,1323,259,25356,A,5343 N BROADWAY,60640,EDGEWATER,77,48,17031030703,1.7031E+14,1167382.759,1935813.542,41.97942825,-87.65980585,"(41.9794282549, -87.6598058547)"
JEWEL FOOD STORE #3470,1382,259,24815,A,3570 N ELSTON AVE,60618,AVONDALE,21,35,17031831100,1.70318E+14,1154304.814,1923553.343,41.9460576,-87.70823011,"(41.946057604, -87.7082301098)"
5659 W. DIVERSEY,1575023,277375,4000,B,5659 W DIVERSEY AVE,60639,BELMONT CRAGIN,19,30,17031190602,1.70312E+14,1137914.081,1918001.654,41.9311354,-87.76861213,"(41.9311354035, -87.7686121306)"
MACIAS PRODUCE INC.,1648017,297549,7000,B,8933 S COMMERCIAL AVE,60617,SOUTH CHICAGO,46,10,17031833900,1.70318E+14,1197739.28,1846169.38,41.73273359,-87.55117278,"(41.7327335949, -87.5511727836)"
DILILAH GROCERY,1986580,346168,3125,B,1759 W 21ST ST,60608,LOWER WEST SIDE,31,25,17031310800,1.70313E+14,1164727.487,1890072.173,41.85396788,-87.67087019,"(41.8539678804, -87.6708701882)"
DOMINICK'S # 304/2304,41617,5033,10001,A,2550 N CLYBOURN AVE,60614,LINCOLN PARK,7,32,17031070700,1.70311E+14,1163869.571,1916997.688,41.92787172,-87.67325881,"(41.9278717231, -87.6732588146)"
OUTLET KINGDOM,2054475,356046,4000,B,3449 S HALSTED ST,60608,BRIDGEPORT,60,11,17031839700,1.70318E+14,1171577.641,1881783.379,41.83107494,-87.64597111,"(41.8310749437, -87.6459711122)"
LA INTERNATIONAL,57700,18542,3000,B,4301 S ARCHER AVE,60632,BRIGHTON PARK,58,14,17031580502,1.70316E+14,1156338.846,1875918.037,41.81530069,-87.7020416,"(41.8153006937, -87.7020416008)"
PETE'S PRODUCE,1448266,271341,10000,A,1411 W 87TH ST,60620,AUBURN GRESHAM,71,21,17031711400,1.70317E+14,1168376.322,1847018.231,41.73574485,-87.65871771,"(41.7357448514, -87.6587177057)"
"CALMA OPTIMAL DELI, INC.",1991322,346718,3000,B,5155 W ADDISON ST,60641,PORTAGE PARK,15,38,17031151001,1.70312E+14,1141134.009,1923401.79,41.9458951,-87.75664585,"(41.9458951009, -87.7566458523)"
HARBOR MARKET,44759,16473,4200,B,155 N HARBOR DR,60601,LOOP,32,42,17031320100,1.70313E+14,1179690.183,1901410.339,41.88475054,-87.61560396,"(41.8847505385, -87.6156039565)"
"SWEQI FOOD MART, INC.",2055024,356315,2600,B,4100 W NORTH AVE,60639,HUMBOLDT PARK,23,30,17031230500,1.70312E+14,1148781.236,1910359.363,41.90996088,-87.72887496,"(41.9099608832, -87.7288749604)"
WALLY'S MARKET INC,72825,21938,33000,A,6601 W IRVING PARK RD,60634,DUNNING,17,38,17031170300,1.70312E+14,1131673.891,1925827.774,41.95272166,-87.79136221,"(41.9527216579, -87.7913622126)"
SAVEWAY FOOD,1594450,290756,3000,B,313 E 43RD ST,60653,GRAND BOULEVARD,38,3,17031835800,1.70318E+14,1178918.696,1876526.87,41.81648632,-87.61919683,"(41.8164863247, -87.6191968314)"
CARNICERIA&FRUTERIA EL MITOTE,49322,17160,4500,B,4459 W BELMONT AVE,60641,HERMOSA,20,31,17031200100,1.70312E+14,1145834.315,1920855.404,41.93881951,-87.7394338,"(41.9388195147, -87.7394338028)"
LEMEN SUN CORP.,28022,11427,3600,B,2832 S WENTWORTH AVE,60616,ARMOUR SQUARE,34,11,17031340400,1.70313E+14,1175376.922,1885651.269,41.84160448,-87.6319155,"(41.8416044818, -87.6319155034)"
SAVE-A-LOT  #862,1353496,216203,14800,A,4701 S COTTAGE GROVE AVE,60615,KENWOOD,39,4,17031390400,1.70314E+14,1182423.862,1874006.379,41.80948925,-87.60641743,"(41.8094892465, -87.6064174294)"
TREASURE ISLAND FOODS,1307,85291,10001,A,1639 N WELLS ST,60614,LINCOLN PARK,7,43,17031071500,1.70311E+14,1174435.98,1911410.983,41.9123118,-87.63459886,"(41.9123117952, -87.6345988555)"
"OGIES FOOD, INC",26972,11210,10001,A,2600 W LITHUANIAN PLAZA CT,60629,CHICAGO LAWN,66,15,17031660900,1.70317E+14,1160212.869,1858843.112,41.76836584,-87.68830091,"(41.7683658358, -87.6883009077)"
SUPERMERCADO EL GUERO #10 INC,39978,10046,10001,A,4023 S ARCHER AVE,60632,BRIGHTON PARK,58,12,17031580600,1.70316E+14,1158673.073,1877860.268,41.82058304,-87.69342617,"(41.8205830407, -87.693426166)"
TRADER JOE'S,1991799,211718,15000,A,3745 N LINCOLN AVE,60613,NORTH CENTER,5,47,17031050600,1.70311E+14,1163151.375,1925042.094,41.94996117,-87.67567113,"(41.9499611711, -87.6756711293)"
DOMINICK'S,1969836,5033,59488,A,6623 N DAMEN AVE,60645,WEST RIDGE,2,50,17031020500,1.7031E+14,1161793.538,1944077.421,42.00222338,-87.68012883,"(42.0022233751, -87.680128828)"
ALDI'S #08,1743166,5273,16890,A,7333 S STATE ST,60619,GREATER GRAND CROSSING,69,6,17031691000,1.70317E+14,1177594.904,1856252.26,41.76088087,-87.62466578,"(41.760880872, -87.6246657846)"
ALDI,1959623,5273,15680,A,6221 N BROADWAY,60660,EDGEWATER,77,49,17031030103,1.7031E+14,1167209.184,1941564.023,41.99521146,-87.66027799,"(41.9952114602, -87.6602779929)"
FAIRPLAY FOODS INC,10947,86481,18500,A,2323 W 111TH ST,60643,MORGAN PARK,75,19,17031750500,1.70318E+14,1162749.757,1830916.867,41.6916792,-87.67977917,"(41.691679204, -87.6797791725)"
BIG APPLE FINER FOODS INC,4900,3297,9000,B,2345 N CLARK ST,60614,LINCOLN PARK,7,43,17031071400,1.70311E+14,1172948.706,1916010.492,41.92496618,-87.63992602,"(41.9249661791, -87.639926019)"
AVENUE FOOD MAR INC,1246771,20727,18000,A,6850 W BELMONT AVE,60634,DUNNING,17,36,17031171000,1.70312E+14,1129966.481,1920538.73,41.93823738,-87.79776035,"(41.938237376, -87.7977603483)"
FRESH FARMS INTERNATIONAL,30144,12018,9500,B,2626 W DEVON AVE,60659,WEST RIDGE,2,50,17031020602,1.7031E+14,1157511.176,1942409.793,41.99773591,-87.69592888,"(41.9977359091, -87.6959288805)"
LAKE VIEW FOODS INC,2055,408,3100,B,4106 N SHERIDAN RD,60613,UPTOWN,3,46,17031032100,1.7031E+14,1168818.567,1927666.092,41.9570403,-87.65476289,"(41.9570402995, -87.6547628922)"
THE CELLAR,1574603,286737,5000,B,3106 N HARLEM AVE,60634,DUNNING,17,36,17031170900,1.70312E+14,1127497.707,1919931.539,41.93661313,-87.80684752,"(41.9366131328, -87.8068475211)"
MARIANO'S FRESH MARKET #8507,2163771,360006,,A,5353 N ELSTON AVE,60630,JEFFERSON PARK,11,45,17031110100,1.70311E+14,1140915.424,1935358.818,41.97871026,-87.75715377,"(41.97871026, -87.75715377)"
RAINBOW GROCERY,61801,19562,2500,B,2003 W 69TH ST,60636,WEST ENGLEWOOD,67,17,17031671500,1.70317E+14,1164163.509,1858859.406,41.76832833,-87.67381938,"(41.7683283348, -87.673819384)"
"CARNICERIA LA HACIENDA, INC.",1492826,276948,4000,B,3459 W 59TH ST,60629,CHICAGO LAWN,66,16,17031660400,1.70317E+14,1154081.818,1865232.912,41.7860244,-87.71060478,"(41.786024401, -87.7106047774)"
CICERO DELI INC.,20884,8639,3600,B,3206 N CICERO AVE,60641,PORTAGE PARK,15,30,17031151002,1.70312E+14,1143769.203,1920923.968,41.93904667,-87.74702197,"(41.93904667, -87.7470219655)"
K BUENA,1999075,65396,3500,B,4322 W MARQUETTE RD,60629,WEST LAWN,65,13,17031650301,1.70317E+14,1148569.657,1859858.282,41.77138332,-87.73095337,"(41.7713833198, -87.7309533689)"
JEWEL FOOD STORE #3210,1333,259,23845,A,1210 N CLARK ST,60610,NEAR NORTH SIDE,8,42,17031080202,1.70311E+14,1175275.323,1908485.463,41.90426523,-87.63160329,"(41.9042652283, -87.6316032946)"
NANCY FOODS INC,79959,23327,2500,B,12315 S STATE ST,60628,WEST PULLMAN,53,9,17031530600,1.70315E+14,1178520.748,1823233.633,41.6702524,-87.62227196,"(41.6702523999, -87.6222719562)"
WINDY CITY INC,24289,9833,4225,B,324 S CICERO AVE,60644,AUSTIN,25,24,17031252202,1.70313E+14,1144408.893,1897932.784,41.87594436,-87.74525023,"(41.8759443554, -87.7452502275)"
ULTRA FOODS,1741082,308026,87600,A,3250 W 87TH ST,60652,ASHBURN,70,18,17031700402,1.70317E+14,1156151.776,1846754.041,41.73527409,-87.70351128,"(41.7352740895, -87.7035112835)"
PETE'S FRESH SUPERMARKET,1771242,312119,75000,A,2526 W CERMAK RD,60608,SOUTH LAWNDALE,30,28,17031840700,1.70318E+14,1159779.467,1889354.072,41.85210065,-87.68905111,"(41.8521006532, -87.6890511106)"
CARNICERIA GUANAJUATO #3,2060960,357299,9000,B,3132 N CALIFORNIA AVE,60618,AVONDALE,21,33,17031210800,1.70312E+14,1157122.784,1920845.308,41.93856972,-87.69794595,"(41.9385697153, -87.6979459455)"
MINI MERCADO LA BETANIA,33473,3205,2640,B,2800 S TRIPP AVE,60623,SOUTH LAWNDALE,30,22,17031301803,1.70313E+14,1148469.253,1885006.799,41.84039654,-87.73067501,"(41.8403965367, -87.7306750125)"
JEWEL FOOD STORE #3114,1388,259,20860,A,3128 W 103RD ST,60655,MOUNT GREENWOOD,74,19,17031740100,1.70317E+14,1157251.365,1836208.393,41.70631284,-87.69976712,"(41.7063128446, -87.6997671192)"
TIERRA CALIENTE MARKET,1769425,311388,3125,B,1402 N ASHLAND AVE,60622,WEST TOWN,24,1,17031241500,1.70312E+14,1165430.193,1909440.718,41.90710182,-87.66773966,"(41.9071018181, -87.6677396553)"
QUALITY FOOD ON 71 ST INC,76481,22614,3000,B,2557 W 71ST ST,60629,CHICAGO LAWN,66,18,17031661000,1.70317E+14,1160309.134,1857439.332,41.76451168,-87.68798666,"(41.7645116769, -87.687986655)"
JEWEL FOOD STORE #3302,1402,259,25431,A,3644 S ARCHER AVE,60609,MCKINLEY PARK,59,11,17031590500,1.70316E+14,1161644.385,1880433.811,41.8275839,-87.68245444,"(41.8275838968, -87.6824544425)"
CERMAK PRODUCE,1770942,311980,17000,A,3311 W 26TH ST,60623,SOUTH LAWNDALE,30,22,17031840800,1.70318E+14,1154665.272,1886497.894,41.84436673,-87.70789805,"(41.8443667287, -87.7078980538)"
,,,,,,,,,,,,,,,,
,,,,,,,,,,,,,,,,
,,,,,,,,,,,,,,,,
,,,,,,,,,,,,,,,,
,,,,,,,,,,,,,,,,
,,,,,,,,,,,,,,,,
,,,,,,,,,,,,,,,,
,,,,,,,,,,,,,,,,
,,,,,,,,,,,,,,,,
,,,,,,,,,,,,,,,,
,,,,,,,,,,,,,,,,
,,,,,,,,,,,,,,,,
,,,,,,,,,,,,,,,,
,,,,,,,,,,,,,,,,
,,,,,,,,,,,,,,,,
,,,,,,,,,,,,,,,,
,,,,,,,,,,,,,,,,
,,,,,,,,,,,,,,,,
,,,,,,,,,,,,,,,,
,,,,,,,,,,,,,,,,
,,,,,,,,,,,,,,,,
,,,,,,,,,,,,,,,,
,,,,,,,,,,,,,,,,
,,,,,,,,,,,,,,,,
,,,,,,,,,,,,,,,,
,,,,,,,,,,,,,,,,
,,,,,,,,,,,,,,,,
,,,,,,,,,,,,,,,,
,,,,,,,,,,,,,,,,
,,,,,,,,,,,,,,,,
,,,,,,,,,,,,,,,,
,,,,,,,,,,,,,,,,
,,,,,,,,,,,,,,,,
,,,,,,,,,,,,,,,,
,,,,,,,,,,,,,,,,
,,,,,,,,,,,,,,,,
,,,,,,,,,,,,,,,,
,,,,,,,,,,,,,,,,
,,,,,,,,,,,,,,,,
,,,,,,,,,,,,,,,,
,,,,,,,,,,,,,,,,
,,,,,,,,,,,,,,,,
,,,,,,,,,,,,,,,,
,,,,,,,,,,,,,,,,
,,,,,,,,,,,,,,,,
,,,,,,,,,,,,,,,,
,,,,,,,,,,,,,,,,
,,,,,,,,,,,,,,,,
,,,,,,,,,,,,,,,,
,,,,,,,,,,,,,,,,
,,,,,,,,,,,,,,,,
,,,,,,,,,,,,,,,,
,,,,,,,,,,,,,,,,
,,,,,,,,,,,,,,,,
,,,,,,,,,,,,,,,,
,,,,,,,,,,,,,,,,
,,,,,,,,,,,,,,,,
,,,,,,,,,,,,,,,,
,,,,,,,,,,,,,,,,
,,,,,,,,,,,,,,,,
,,,,,,,,,,,,,,,,
,,,,,,,,,,,,,,,,
,,,,,,,,,,,,,,,,
,,,,,,,,,,,,,,,,
,,,,,,,,,,,,,,,,
,,,,,,,,,,,,,,,,
,,,,,,,,,,,,,,,,
,,,,,,,,,,,,,,,,
,,,,,,,,,,,,,,,,
,,,,,,,,,,,,,,,,
,,,,,,,,,,,,,,,,
,,,,,,,,,,,,,,,,
,,,,,,,,,,,,,,,,
,,,,,,,,,,,,,,,,
,,,,,,,,,,,,,,,,
